id,title,price,description,long,latitude,review_airbnb,calification_rate,created_at,verified,host_review,cameras_on_site,rooms,year,city,Commune_name,Commune_number
1011761919469637760,Hermoso apartamento las  palmas,640000.0,"Vivienda rentada entero en Medellín, Colombia",-75.55798253,6.215317472,0.0,,2023-08,True,,True,2.0,2023.0,MEDELLÍN,Buenos Aires,Comuna 9
957959124861517056,PVT APT  3BD  - Lleras Park,791679.0,"Vivienda rentada entero en Medellín, Colombia",-75.5699178,6.2103367,0.0,,2023-08,True,,True,2.0,2023.0,MEDELLÍN,El Poblado,Comuna 6
705259118691125248,Amplia y acogedora casa de habitación privada en Medellín,676886.0,"Habitación en Medellín, Colombia",-75.56689,6.2072,0.0,,2022-02,,,False,1.0,2022.0,MEDELLÍN,El Poblado,Comuna 6
7840662,POBLADO NEAR PARQUE LLERAS APARTMENT,712512.0,"Vivienda rentada entero en Medellín, Colombia",-75.56482,6.20724,65.0,4.86,2015-08,,65.0,False,3.0,2015.0,MEDELLÍN,El Poblado,Comuna 6
705231926741978496,Dormitorio privado completamente amueblado,676886.0,"Habitación en Medellín, Colombia",-75.5659536,6.2080365,0.0,,2022-02,,,False,1.0,2022.0,MEDELLÍN,El Poblado,Comuna 6
705238414467597824,Increíble dormitorio privado con una ubicación fantástica,676886.0,"Habitación en Medellín, Colombia",-75.5648,6.20754,0.0,,2022-02,,,False,1.0,2022.0,MEDELLÍN,El Poblado,Comuna 6
940756738873697792,Casa bohemia con jacuzzi y azotea,751143.0,"Vivienda rentada entero en Medellín, Colombia",-75.5963422,6.2494708,39.0,4.97,2023-07,True,39.0,False,3.0,2023.0,MEDELLÍN,Laureles Estadio,Comuna 10
1044163892876461952,Apartamento Morph 802-Serene en Poblado con balcón privado,709701.0,"Vivienda rentada entero en Medellín, Colombia",-75.5671467,6.2017048,1.0,,2017-01,True,3674.0,False,2.0,2017.0,MEDELLÍN,El Poblado,Comuna 6
1015401669235102208,Poblado Ultra Luxury 2Br+Jacuzzi privado con vistas,788869.0,"Vivienda rentada entero en Medellín, Colombia",-75.55465,6.20633,12.0,4.92,2018-10,True,1019.0,False,2.0,2018.0,MEDELLÍN,El Poblado,Comuna 6
1034952667393144832,"|EP| Impresionante apartamento de Provenza con aire acondicionado, diseño elegante",1192309.0,"Vivienda rentada entero en Medellín, Colombia",-75.56748,6.21076,9.0,5.0,2022-08,True,320.0,False,2.0,2022.0,MEDELLÍN,El Poblado,Comuna 6
684728262855885824,Provenza Forever W&L Edificio 93,846833.0,"Vivienda rentada entero en Medellín, Colombia",-75.5618821,6.2026787,66.0,4.85,2021-06,True,1167.0,False,3.0,2021.0,MEDELLÍN,El Poblado,Comuna 6
804317355815939072,(501). Apartamento de lujo de dos habitaciones. En Provenza Mde.,761160.0,"Vivienda rentada entero en Medellín, Colombia",-75.56574,6.21152,17.0,4.94,2022-10,True,173.0,True,2.0,2022.0,MEDELLÍN,El Poblado,Comuna 6
52367511,Paz 302 Tropic,737410.0,"Apartamento con servicios incluidos entero en Medellín, Colombia",-75.56641,6.21066,115.0,4.9,2019-01,True,2754.0,True,2.0,2019.0,MEDELLÍN,El Poblado,Comuna 6
1014414562884901632,¡El Regal Astorga! 2bd/2ba/Patio/Lavandería/150mbWIFI,629385.0,"Vivienda rentada entero en Medellín, Colombia",-75.57427274,6.208641044,11.0,5.0,2015-07,True,972.0,False,2.0,2015.0,MEDELLÍN,El Poblado,Comuna 6
973263804766052992,The Spot Bldg 53,959301.0,"Vivienda rentada entero en Medellín, Colombia",-75.56426052,6.210424362,19.0,4.89,2021-06,True,1167.0,False,3.0,2021.0,MEDELLÍN,El Poblado,Comuna 6
12366172,Energy  Balcón con Jacuzzi Privado /AC Gran Vista,735708.0,"Loft entero en Medellín, Colombia",-75.55898,6.21039,239.0,4.97,2016-03,True,462.0,False,1.0,2016.0,MEDELLÍN,El Poblado,Comuna 6
664694503891639296,Apartamento penthouse de 180 m2 con jacuzi & turco,780000.0,"Loft entero en Medellín, Colombia",-75.567543,6.211037,53.0,4.81,2020-02,True,319.0,True,1.0,2020.0,MEDELLÍN,El Poblado,Comuna 6
842962962959692544,"Lujo y moderno, cerca de Provenza",671429.0,"Vivienda rentada entero en Medellín, Colombia",-75.5646733,6.2133147,35.0,5.0,2022-12,True,35.0,False,2.0,2022.0,MEDELLÍN,El Poblado,Comuna 6
740139696551157120,Jacuzzi privado » Energy Living » Pvt. Balcón,684209.0,"Vivienda rentada entero en Medellín, Colombia",-75.559314,6.2112306,46.0,4.91,2011-09,True,99.0,False,1.0,2011.0,MEDELLÍN,El Poblado,Comuna 6
1036223538062007168,"Chill Haven: Jacuzzi, BBQ, Pool - Morph 1301",735114.0,"Vivienda rentada entero en Medellín, Colombia",-75.5671467,6.2017048,2.0,,2021-10,True,240.0,False,2.0,2021.0,MEDELLÍN,El Poblado,Comuna 6
937608539557230720,Increíble jacuzzi privado con terraza de 3 dormitorios en Laureles,863485.0,"Vivienda rentada entero en Medellín, Colombia",-75.5914036,6.2503603,5.0,5.0,2015-05,True,916.0,False,3.0,2015.0,MEDELLÍN,Laureles Estadio,Comuna 10
896246133534181376,La vista. En el cielo de Provenza.,607735.0,"Vivienda rentada entero en Medellín, Colombia",-75.5644,6.21003,28.0,5.0,2021-06,True,1167.0,False,2.0,2021.0,MEDELLÍN,El Poblado,Comuna 6
724433026929761920,- ¡¡Cama king y jacuzzi privado! -,720428.0,"Loft entero en Medellín, Colombia",-75.56489926,6.210500854,92.0,4.99,2015-09,True,907.0,False,1.0,2015.0,MEDELLÍN,El Poblado,Comuna 6
1035614887095253632,"Chill Haven: jacuzzi, barbacoa, piscina 1301",735114.0,"Vivienda rentada entero en Medellín, Colombia",-75.5671467,6.2017048,8.0,5.0,2017-01,True,3674.0,False,2.0,2017.0,MEDELLÍN,El Poblado,Comuna 6
1014454160248747392,El mejor apartamento de lujo con impresionantes vistas| Jacuzzi privado.,752095.0,"Vivienda rentada entero en Medellín, Colombia",-75.55465,6.20633,6.0,5.0,2018-10,True,1019.0,False,2.0,2018.0,MEDELLÍN,El Poblado,Comuna 6
51445410,Edificio Provenza Forever W&L 63,887258.0,"Vivienda rentada entero en Medellín, Colombia",-75.5627,6.20293,121.0,4.87,2021-06,True,1167.0,False,3.0,2021.0,MEDELLÍN,El Poblado,Comuna 6
804310257090603264,(301). Apartamento de lujo de dos habitaciones. En Provenza Mde.,681992.0,"Vivienda rentada entero en Medellín, Colombia",-75.56683,6.21145,26.0,4.73,2022-10,True,173.0,False,2.0,2022.0,MEDELLÍN,El Poblado,Comuna 6
1039864130262759936,Amplio apartamento con vistas a la ciudad y jacuzzi - Morph 701,735114.0,"Vivienda rentada entero en Medellín, Colombia",-75.5671467,6.2017048,2.0,,2021-10,True,240.0,False,2.0,2021.0,MEDELLÍN,El Poblado,Comuna 6
1022039196468138752,Hermoso penthouse en Laureles con jacuzzi,565497.0,"Vivienda rentada entero en Medellín, Colombia",-75.59430359,6.248040644,14.0,4.86,2022-10,True,197.0,False,2.0,2022.0,MEDELLÍN,Laureles Estadio,Comuna 10
637133549619127552,"Increíble apartamento 2BR en Provenza con aire acondicionado, vistas y piscina",589801.0,"Condo entero en Medellín, Colombia",-75.564873,6.213622,82.0,4.93,2021-03,True,524.0,False,2.0,2021.0,MEDELLÍN,El Poblado,Comuna 6
981184847521067264,The Spot Bldg 54,858557.0,"Vivienda rentada entero en Medellín, Colombia",-75.56575641,6.211643859,21.0,4.95,2021-06,True,1167.0,False,3.0,2021.0,MEDELLÍN,El Poblado,Comuna 6
42046909,Suite de lujo con bañera de hidromasaje en el corazón de Lleras Park,876825.0,"Apartamento con servicios incluidos entero en Medellín, Colombia",-75.56799,6.20798,356.0,4.8,2020-02,True,624.0,True,2.0,2020.0,MEDELLÍN,El Poblado,Comuna 6
878438905030744192,¡Apartamento moderno en el corazón de El Poblado + View!,747019.0,"Vivienda rentada entero en Medellín, Colombia",-75.57022,6.18591,29.0,4.97,2020-01,True,146.0,False,4.0,2020.0,MEDELLÍN,El Poblado,Comuna 6
31051509,Lleras de 6 dormitorios con jacuzzi PRIVADO para 12 personas,1194288.0,"Vivienda rentada entero en Medellín, Colombia",-75.57137,6.20896,124.0,4.66,2015-09,True,1441.0,True,6.0,2015.0,MEDELLÍN,El Poblado,Comuna 6
48399741,para disfrutar de lo mejor del diseño y del arte de Medellín.,732304.0,"Vivienda rentada entero en Medellín, Colombia",-75.56651,6.20201,26.0,4.62,2016-07,True,87.0,False,2.0,2016.0,MEDELLÍN,El Poblado,Comuna 6
761412457911041536,Increíble apartamento espacioso con aire acondicionado 3bd @Poblado- Provenza,750393.0,"Condo entero en Medellín, Colombia",-75.56203231,6.202595904,58.0,4.97,2016-04,True,376.0,False,3.0,2016.0,MEDELLÍN,El Poblado,Comuna 6
1020985795537860608,Ático chic en Poblado con limpieza/chef y vista épica,285005.0,"Vivienda rentada entero en Medellín, Colombia",-75.56714613,6.208799013,4.0,5.0,2023-09,True,20.0,True,5.0,2023.0,MEDELLÍN,El Poblado,Comuna 6
761374257731604352,Cómodo apartamento con jacuzzi y vista al Poblado|Cerca de Provenza,749285.0,"Vivienda rentada entero en Medellín, Colombia",-75.56401,6.21217,79.0,4.85,2016-04,True,376.0,False,2.0,2016.0,MEDELLÍN,El Poblado,Comuna 6
26960605,EnergyLiving2BD Apt with Terrace 1804,748137.0,"Vivienda rentada entero en Medellín, Colombia",-75.56036,6.20994,184.0,4.95,2015-08,True,214.0,False,2.0,2015.0,MEDELLÍN,El Poblado,Comuna 6
45976188,Apartamento de 2 dormitorios en Provenza con jacuzzi privado,788869.0,"Vivienda rentada entero en Medellín, Colombia",-75.56658,6.20846,43.0,4.65,2020-01,True,463.0,True,2.0,2020.0,MEDELLÍN,El Poblado,Comuna 6
38701716,Moderno y elegante apartamento de 2 dormitorios en El Poblado privilegiado,787721.0,"Vivienda rentada entero en Medellín, Colombia",-75.56567,6.20767,94.0,4.94,2019-06,True,593.0,True,2.0,2019.0,MEDELLÍN,El Poblado,Comuna 6
32417859,*Top-Notch Penthouse | Poblado Near Parque Lleras*,774144.0,"Vivienda rentada entero en Medellín, Colombia",-75.56473,6.21439,279.0,4.97,2011-12,True,694.0,False,2.0,2011.0,MEDELLÍN,El Poblado,Comuna 6
52365586,CAFETERÍA PAZ 202,581211.0,"Apartamento con servicios incluidos entero en Medellín, Colombia",-75.56495,6.20927,101.0,4.79,2019-01,True,2755.0,True,2.0,2019.0,MEDELLÍN,El Poblado,Comuna 6
1021133421613174656,"Luxe Escape: jacuzzi, barbacoa, piscina y gimnasio - Morph 602",735114.0,"Vivienda rentada entero en Medellín, Colombia",-75.5671467,6.2017048,6.0,5.0,2017-01,True,3674.0,False,2.0,2017.0,MEDELLÍN,El Poblado,Comuna 6
1050092756719328640,Morph 1202 - Vida glamurosa: jacuzzi/balcón/barbacoa.,735114.0,"Vivienda rentada entero en Medellín, Colombia",-75.5671467,6.2017048,4.0,5.0,2017-01,True,3674.0,False,2.0,2017.0,MEDELLÍN,El Poblado,Comuna 6
804319509943025920,(502). Apartamento de lujo de dos habitaciones. En Provenza Mde.,681992.0,"Vivienda rentada entero en Medellín, Colombia",-75.56716,6.2109,25.0,4.8,2022-10,True,173.0,True,2.0,2022.0,MEDELLÍN,El Poblado,Comuna 6
684766157011677952,Provenza Forever W&L Edificio 73,882233.0,"Vivienda rentada entero en Medellín, Colombia",-75.56246,6.20338,80.0,4.84,2021-06,True,1167.0,False,3.0,2021.0,MEDELLÍN,El Poblado,Comuna 6
558459191887292800,Provenza 5 Bd - Golden Jacuzzi - 2 min walk LLeras,1461797.0,"Apartamento con servicios incluidos entero en Medellín, Colombia",-75.56587,6.21028,69.0,4.83,2015-09,True,1441.0,True,5.0,2015.0,MEDELLÍN,El Poblado,Comuna 6
886231255597822464,Apartamento de lujo de 2 dormitorios con jacuzzi privado/aire acondicionado/gran terraza,632552.0,"Vivienda rentada entero en Medellín, Colombia",-75.55559,6.20725,15.0,4.73,2018-10,True,1019.0,False,2.0,2018.0,MEDELLÍN,El Poblado,Comuna 6
1048191696843567232,"1002, hermoso apartamento en el corazón de El Poblado",784798.0,"Vivienda rentada entero en Medellín, Colombia",-75.56796608,6.18622207,1.0,,2020-01,True,146.0,False,4.0,2020.0,MEDELLÍN,El Poblado,Comuna 6
930584715665774720,Un apartamento de 5 estrellas y 2 dormitorios | Jacuzzi privado | AC,719280.0,"Vivienda rentada entero en Medellín, Colombia",-75.55398187,6.20695328,19.0,4.95,2018-10,True,1019.0,False,2.0,2018.0,MEDELLÍN,El Poblado,Comuna 6
42509844,Ático de lujo de 2 pisos,839893.0,"Vivienda rentada entero en Medellín, Colombia",-75.56921,6.20243,108.0,4.93,2014-06,True,415.0,False,4.0,2014.0,MEDELLÍN,El Poblado,Comuna 6
51510274,¡Apartamento único con jacuzzi privado y terraza!,652581.0,"Apartamento con servicios incluidos entero en Medellín, Colombia",-75.55423,6.20679,124.0,4.99,2016-03,True,486.0,False,1.0,2016.0,MEDELLÍN,El Poblado,Comuna 6
52269614,"Hermoso y moderno, cerca de Provenza y Las Palmas",657143.0,"Vivienda rentada entero en Medellín, Colombia",-75.564461,6.21365,142.0,4.99,2013-05,True,142.0,False,2.0,2013.0,MEDELLÍN,El Poblado,Comuna 6
37459939,Apartamento moderno de 2 dormitorios en el corazón de El Poblado,787721.0,"Vivienda rentada entero en Medellín, Colombia",-75.56806,6.20713,97.0,4.95,2019-06,True,593.0,True,2.0,2019.0,MEDELLÍN,El Poblado,Comuna 6
40699061,Classy apartament - Lleras Park and Provenza,827859.0,"Vivienda rentada entero en Medellín, Colombia",-75.56685638,6.20991993,214.0,4.93,2018-01,True,556.0,False,2.0,2018.0,MEDELLÍN,El Poblado,Comuna 6
917276479735536000,L1  Laureles House con azotea y jacuzzi,710889.0,"Alojamiento entero en Medellín, Colombia",-75.59906526,6.249551083,14.0,4.86,2015-12,True,457.0,True,7.0,2015.0,MEDELLÍN,Laureles Estadio,Comuna 10
648518625826478592,"¡Aire acondicionado, 2BR, Provenza, 300 MB, LTerrace, jacuzzi privado!",1128143.0,"Vivienda rentada entero en Medellín, Colombia",-75.56378,6.21191,26.0,4.69,2022-06,True,859.0,True,2.0,2022.0,MEDELLÍN,El Poblado,Comuna 6
818165461697922432,Parque Lleras Apto para huéspedes con aire acondicionado y mesa de billar,783763.0,"Vivienda rentada entero en Medellín, Colombia",-75.56728,6.20954,25.0,4.48,2015-02,True,1465.0,True,4.0,2015.0,MEDELLÍN,El Poblado,Comuna 6
789144882351023360,¡2bedR-Ac-300mb- balcony- jacuzzi-wake 616!,936201.0,"Vivienda rentada entero en Medellín, Colombia",-75.56571,6.21214,30.0,4.9,2022-06,True,859.0,True,2.0,2022.0,MEDELLÍN,El Poblado,Comuna 6
1035584728326381824,Morph 1402-Stylish apt in Poblado/Priv Jacuzzi/AC,735114.0,"Vivienda rentada entero en Medellín, Colombia",-75.5671467,6.2017048,3.0,5.0,2017-01,True,3674.0,False,2.0,2017.0,MEDELLÍN,El Poblado,Comuna 6
1044194574571715968,Morph 1101 - Apartamento sofisticado y brillante/jacuzzi/barbacoa,735114.0,"Vivienda rentada entero en Medellín, Colombia",-75.5671467,6.2017048,2.0,,2017-01,True,3674.0,False,2.0,2017.0,MEDELLÍN,El Poblado,Comuna 6
1035640332803152768,Amplio apartamento con vistas a la ciudad y jacuzzi - Morph 701,735114.0,"Vivienda rentada entero en Medellín, Colombia",-75.5671467,6.2017048,2.0,,2017-01,True,3674.0,False,2.0,2017.0,MEDELLÍN,El Poblado,Comuna 6
745800008924088064,(401). Apartamento de lujo de dos habitaciones. En Provenza Mde.,834391.0,"Apartamento con servicios incluidos entero en Medellín, Colombia",-75.5665,6.20997,33.0,4.94,2022-10,True,173.0,False,2.0,2022.0,MEDELLÍN,El Poblado,Comuna 6
23611449,Spr Balcón AC Prv. Jacuzzi / Poblado Energy Living,752095.0,"Vivienda rentada entero en Medellín, Colombia",-75.55882,6.21131,51.0,4.96,2016-04,True,197.0,False,1.0,2016.0,MEDELLÍN,El Poblado,Comuna 6
1039899824752415232,Morph 1002-Luxe apt in Poblado/Jacuzzi/Pool/BBQ,735114.0,"Vivienda rentada entero en Medellín, Colombia",-75.5671467,6.2017048,1.0,,2021-10,True,240.0,False,2.0,2021.0,MEDELLÍN,El Poblado,Comuna 6
893066258462662656,¡Increíble apartamento en el corazón de El Poblado + View!,743166.0,"Vivienda rentada entero en Medellín, Colombia",-75.57006,6.18589,14.0,5.0,2020-01,True,146.0,False,4.0,2020.0,MEDELLÍN,El Poblado,Comuna 6
778285261744541184,¡Ac + Balcony + Jacuzzi Wake 716!,985087.0,"Vivienda rentada entero en Medellín, Colombia",-75.56557,6.21055,40.0,4.8,2022-06,True,859.0,False,2.0,2022.0,MEDELLÍN,El Poblado,Comuna 6
971261857592903936,NUEVO apartamento impresionante 360 View @Poblado cerca de Provenza,724387.0,"Vivienda rentada entero en Medellín, Colombia",-75.5646733,6.2133147,19.0,4.95,2016-04,True,376.0,False,3.0,2016.0,MEDELLÍN,El Poblado,Comuna 6
990544862053524736,"""Penthouse-confort-vista- montañas.",724571.0,"Vivienda rentada entero en Medellín, Colombia",-75.5895806,6.23745068,5.0,5.0,2023-09,True,5.0,False,4.0,2023.0,MEDELLÍN,Belén,Comuna 16
918738930908395776,Apartamento de Lujo Provenza,632196.0,"Apartamento con servicios incluidos entero en Medellín, Colombia",-75.56796416,6.212411867,12.0,4.92,2017-02,True,61.0,False,2.0,2017.0,MEDELLÍN,El Poblado,Comuna 6
605291445389528320,302 Amplio apartamento con buena vista en El Poblado,613183.0,"Vivienda rentada entero en Medellín, Colombia",-75.56951,6.18557,11.0,4.82,2019-11,True,435.0,False,4.0,2019.0,MEDELLÍN,El Poblado,Comuna 6
998845226454662528,Ático con jacuzzi en el parque Lleras,667571.0,"Vivienda rentada entero en Medellín, Colombia",-75.5687105,6.2106624,4.0,5.0,2022-05,True,153.0,False,3.0,2022.0,MEDELLÍN,El Poblado,Comuna 6
40394835,Hermoso apartamento de 2 dormitorios justo en El Poblado,792827.0,"Vivienda rentada entero en Medellín, Colombia",-75.56626,6.2092,99.0,4.93,2019-06,True,593.0,False,2.0,2019.0,MEDELLÍN,El Poblado,Comuna 6
43300343,202 City View Terrace en El Poblado,680000.0,"Vivienda rentada entero en Medellín, Colombia",-75.57009,6.18635,53.0,4.64,2019-11,True,435.0,False,3.0,2019.0,MEDELLÍN,El Poblado,Comuna 6
40332561,Departamento moderno y espacioso de 502 colinas El Poblado,664850.0,"Vivienda rentada entero en Medellín, Colombia",-75.56992,6.18753,47.0,4.72,2019-11,True,435.0,False,4.0,2019.0,MEDELLÍN,El Poblado,Comuna 6
839060807493320320,ARYA Penthouse 3BD/3.5Bath Huge Jacuzzi El Poblado,701309.0,"Vivienda rentada entero en Medellín, Colombia",-75.56816854,6.210754166,40.0,4.63,2019-03,True,695.0,False,3.0,2019.0,MEDELLÍN,El Poblado,Comuna 6
914625872980649216,Oasis de vida energética de 2 dormitorios | Guardia 24/7 | Piscina | Gimnasio,732351.0,"Vivienda rentada entero en Medellín, Colombia",-75.55992,6.21336,3.0,4.67,2020-01,True,107.0,False,2.0,2020.0,MEDELLÍN,El Poblado,Comuna 6
866774650318147584,Espectacular Casa Completa con Jacuzzi Privado,793382.0,"Alojamiento entero en Medellín, Colombia",-75.59118,6.26028,6.0,4.5,2021-12,True,31.0,False,4.0,2021.0,MEDELLÍN,Laureles Estadio,Comuna 10
1038444916018194432,Morph 1002-Luxe apt in Poblado/Jacuzzi/AC/BBQ,735114.0,"Vivienda rentada entero en Medellín, Colombia",-75.5671467,6.2017048,2.0,,2017-01,True,3674.0,False,2.0,2017.0,MEDELLÍN,El Poblado,Comuna 6
1024698148317677568,Morph 501: espacioso apartamento acogedor con jacuzzi privado/barbacoa.,735114.0,"Vivienda rentada entero en Medellín, Colombia",-75.5671467,6.2017048,8.0,4.88,2017-01,True,3674.0,False,2.0,2017.0,MEDELLÍN,El Poblado,Comuna 6
804313892073477376,(303). Apartamento de lujo de dos habitaciones. En Provenza Mde.,681992.0,"Vivienda rentada entero en Medellín, Colombia",-75.56708,6.21102,25.0,4.92,2022-10,True,173.0,True,2.0,2022.0,MEDELLÍN,El Poblado,Comuna 6
804302032720958464,(403). Apartamento de lujo de dos habitaciones. En Provenza Mde.,681992.0,"Vivienda rentada entero en Medellín, Colombia",-75.56643,6.21003,23.0,4.96,2022-10,True,173.0,False,2.0,2022.0,MEDELLÍN,El Poblado,Comuna 6
1048187727759476736,Apartamento de lujo en el corazón de El Poblado,856728.0,"Vivienda rentada entero en Medellín, Colombia",-75.56880228,6.18547953,2.0,,2020-01,True,146.0,False,4.0,2020.0,MEDELLÍN,El Poblado,Comuna 6
1036168086510773376,Morph 1402-Stylish apt in Poblado/Priv Jacuzzi/AC,735114.0,"Vivienda rentada entero en Medellín, Colombia",-75.5671467,6.2017048,1.0,,2021-10,True,240.0,False,2.0,2021.0,MEDELLÍN,El Poblado,Comuna 6
928181421396917504,¡Apartamento de lujo de 902 en el corazón de El Poblado!,755688.0,"Vivienda rentada entero en Medellín, Colombia",-75.56983,6.18568,17.0,4.82,2020-01,True,146.0,False,4.0,2020.0,MEDELLÍN,El Poblado,Comuna 6
1039844501065739648,"Luxe Escape: jacuzzi, barbacoa, piscina y gimnasio - Morph 602",735114.0,"Vivienda rentada entero en Medellín, Colombia",-75.5671467,6.2017048,0.0,,2021-10,True,240.0,False,2.0,2021.0,MEDELLÍN,El Poblado,Comuna 6
631831430684338304,"Agradable casa 2 jacuzzi, laureles,estadio,setenta",749086.0,"Alojamiento entero en Medellín, Colombia",-75.58994,6.25387,23.0,4.83,2022-05,True,137.0,True,4.0,2022.0,MEDELLÍN,Laureles Estadio,Comuna 10
39116383,"""3BR Parque Lleras Penthouse, Jacuzzi""",890639.0,"Vivienda rentada entero en Medellín, Colombia",-75.56775,6.20776,0.0,,2013-07,True,248.0,True,3.0,2013.0,MEDELLÍN,El Poblado,Comuna 6
992271897295594496,Penthouse de belleza en un hotel,710600.0,"Vivienda rentada entero en Medellín, Colombia",-75.59395115,6.247785312,1.0,,2023-06,True,5.0,True,2.0,2023.0,MEDELLÍN,Laureles Estadio,Comuna 10
884156181690808320,Nuevo apartamento exclusivo de 3 dormitorios en Provenza,712512.0,"Condo entero en Medellín, Colombia",-75.56408,6.2039,31.0,4.84,2022-08,True,45.0,False,3.0,2022.0,MEDELLÍN,El Poblado,Comuna 6
818143893571928320,"Parque Lleras King con aire acondicionado y apto para huéspedes, 100 megas.",870293.0,"Vivienda rentada entero en Medellín, Colombia",-75.56728,6.20954,39.0,4.67,2015-02,True,1465.0,True,4.0,2015.0,MEDELLÍN,El Poblado,Comuna 6
992242294686624256,"Penthouse en Hotel de Laureles, con balcón",607965.0,"Vivienda rentada entero en Medellín, Colombia",-75.59448806,6.248100426,1.0,,2023-06,True,5.0,True,2.0,2023.0,MEDELLÍN,Laureles Estadio,Comuna 10
812163118566406656,"¡2 dormitorios, 300 mb, balcón, apartamento de lujo, sin aire acondicionado!",899467.0,"Vivienda rentada entero en Medellín, Colombia",-75.56466463,6.21105399,26.0,4.92,2022-06,True,859.0,True,2.0,2022.0,MEDELLÍN,El Poblado,Comuna 6
1006015826968547584,Villa Palos Altos,876286.0,"Alojamiento entero en Medellín, Colombia",-75.55661884,6.201749586,7.0,4.57,2018-07,True,464.0,True,5.0,2018.0,MEDELLÍN,El Poblado,Comuna 6
1015261358888232832,"Calle 9, 4 dormitorios con jacuzzi en el parque Lleras",771887.0,"Vivienda rentada entero en Medellín, Colombia",-75.5694942,6.2095184,1.0,,2015-05,True,916.0,True,4.0,2015.0,MEDELLÍN,El Poblado,Comuna 6
40914203,301 Espacio moderno en la zona exclusiva de El Poblado,667143.0,"Vivienda rentada entero en Medellín, Colombia",-75.56991,6.18678,86.0,4.44,2019-11,True,435.0,False,4.0,2019.0,MEDELLÍN,El Poblado,Comuna 6
40751388,Apartamento zen de 2 dormitorios en el corazón de El Poblado,859526.0,"Vivienda rentada entero en Medellín, Colombia",-75.56743,6.20904,123.0,4.95,2019-06,True,593.0,True,2.0,2019.0,MEDELLÍN,El Poblado,Comuna 6
947366540176480640,Jacuzzi Provenza Garden ¡Ideal para huéspedes!,708553.0,"Vivienda rentada entero en Medellín, Colombia",-75.56708626,6.207245753,10.0,4.9,2018-05,True,74.0,True,2.0,2018.0,MEDELLÍN,El Poblado,Comuna 6
639626718118243968,"Casa 2 jacuzzi laureles, setenta,estadio,9 huesped",750000.0,"Alojamiento entero en Medellín, Colombia",-75.588577,6.25249,49.0,4.73,2022-05,True,137.0,True,4.0,2022.0,MEDELLÍN,Laureles Estadio,Comuna 10
1023330146242422016,"Parque Lleras, mesa de billar, con aire acondicionado y apto para huéspedes",753798.0,"Vivienda rentada entero en Medellín, Colombia",-75.565276,6.2072118,3.0,4.33,2015-02,True,1465.0,True,4.0,2015.0,MEDELLÍN,El Poblado,Comuna 6
931220050931847680,"Parque Lleras King con aire acondicionado y apto para huéspedes, 100 meg",679142.0,"Vivienda rentada entero en Medellín, Colombia",-75.5646344,6.2072791,13.0,4.23,2015-02,True,1465.0,False,4.0,2015.0,MEDELLÍN,El Poblado,Comuna 6
749498109601720448,¡Apartamento de lujo en la chimenea de El Poblado + vista!,767040.0,"Vivienda rentada entero en Medellín, Colombia",-75.56826,6.18725,30.0,4.77,2020-01,True,146.0,False,4.0,2020.0,MEDELLÍN,El Poblado,Comuna 6
979135072768211968,¡Encantadora casa en Medellín!,542857.0,"Alojamiento entero en Medellín, Colombia",-75.603424,6.2235092,12.0,5.0,2023-09,True,12.0,True,7.0,2023.0,MEDELLÍN,Belén,Comuna 16
1037622507569780736,"El Poblado, 216 mt2, moderno en el Tesoro",500000.0,"Vivienda rentada entero en Medellín, Colombia",-75.5584304,6.1989624,0.0,,2021-04,True,55.0,False,4.0,2021.0,MEDELLÍN,El Poblado,Comuna 6
937058642017051520,"Grande y moderna Casa, 7 baños/ 15 min Poblado",1005143.0,"Alojamiento entero en Medellín, Colombia",-75.589166,6.2516688,15.0,5.0,2017-01,True,78.0,True,6.0,2017.0,MEDELLÍN,Laureles Estadio,Comuna 10
897327859618878848,estudio 14,650000.0,"Vivienda rentada entero en Medellín, Colombia",-75.5741608,6.2213794,3.0,4.33,2015-11,True,59.0,False,3.0,2015.0,MEDELLÍN,El Poblado,Comuna 6
778150674060723712,Moderno apartamento de 215 m2 con turco & jacuzzi,761429.0,"Condo entero en Medellín, Colombia",-75.5675639,6.2110223,25.0,4.64,2020-02,True,319.0,True,5.0,2020.0,MEDELLÍN,El Poblado,Comuna 6
1055363895869896832,Apartamento. en prestigioso hotel,720000.0,"Vivienda rentada entero en Medellín, Colombia",-75.57315617,6.210391068,0.0,,2022-12,True,39.0,False,1.0,2022.0,MEDELLÍN,El Poblado,Comuna 6
770240737150436480,Casa Patio 101 Departamento lujo,475008.0,"Vivienda rentada entero en Medellín, Colombia",-75.59033,6.24819,23.0,4.78,2022-11,True,116.0,False,3.0,2022.0,MEDELLÍN,Laureles Estadio,Comuna 10
650202475275388928,"Lujoso apartamento jacuzzi en la 70,estadio,metro",507143.0,"Alojamiento entero en Medellín, Colombia",-75.589128,6.2526719,30.0,4.8,2022-05,True,137.0,True,2.0,2022.0,MEDELLÍN,Laureles Estadio,Comuna 10
47744125,Lleras Park Apartment 302,686505.0,"Vivienda rentada entero en Medellín, Colombia",-75.56794,6.20923,149.0,4.62,2019-01,True,2755.0,False,3.0,2019.0,MEDELLÍN,El Poblado,Comuna 6
46104138,Confortable casa en Provenza Poblado Medellín,557143.0,"Alojamiento entero en Medellín, Colombia",-75.56454,6.20727,82.0,4.68,2020-10,True,82.0,True,3.0,2020.0,MEDELLÍN,El Poblado,Comuna 6
779012788247522304,Apartamento renovado de 160 m2 con jacuzzi & turco,720000.0,"Condo entero en Medellín, Colombia",-75.56841,6.20988,42.0,4.71,2020-02,True,319.0,True,4.0,2020.0,MEDELLÍN,El Poblado,Comuna 6
853922758739020288,Apto en la mejor ubicación de Medellín,720000.0,"Vivienda rentada entero en Medellín, Colombia",-75.5575,6.1995,10.0,5.0,2021-04,True,55.0,False,5.0,2021.0,MEDELLÍN,El Poblado,Comuna 6
1039833154626496000,Morph 501: espacioso apartamento acogedor con jacuzzi privado/barbacoa.,735114.0,"Vivienda rentada entero en Medellín, Colombia",-75.5671467,6.2017048,0.0,,2021-10,True,240.0,False,2.0,2021.0,MEDELLÍN,El Poblado,Comuna 6
27781535,Parque LLeras 3-BR Luxury Penthouse,890639.0,"Vivienda rentada entero en Medellín, Colombia",-75.56704,6.20745,4.0,5.0,2013-07,True,248.0,True,3.0,2013.0,MEDELLÍN,El Poblado,Comuna 6
15680377,PISO DE LA CASA CHIC - Santuario de la ciudad - #2,571593.0,"Alojamiento entero en Medellín, Colombia",-75.59131,6.24581,124.0,4.9,2012-02,True,1107.0,False,4.0,2012.0,MEDELLÍN,Laureles Estadio,Comuna 10
988695965575399680,LOFT de lujo en el Poblado,1000000.0,"Loft entero en Medellín, Colombia",-75.57422783,6.207795759,2.0,,2019-10,True,32.0,False,1.0,2019.0,MEDELLÍN,El Poblado,Comuna 6
567238344224291776,Casa en madera ideal para descansar y soñar,700000.0,"Cabaña entero en Medellín, Colombia",-75.51417,6.25,5.0,5.0,2022-02,True,5.0,True,2.0,2022.0,MEDELLÍN,Corregimiento San Sebastián de Palmitas,
53282023,Increíble vista de un dormitorio en un apartamento de un dormitorio,708553.0,"Vivienda rentada entero en Medellín, Colombia",-75.56479,6.18267,2.0,,2018-05,True,94.0,False,1.0,2018.0,MEDELLÍN,El Poblado,Comuna 6
797784516696261760,Finca con vistas magníficas de 360 grados con piscina,787721.0,"Alojamiento entero en Medellín, Colombia",-75.62203,6.20409,0.0,,2015-01,True,553.0,False,6.0,2015.0,MEDELLÍN,Corregimiento de Altavista,
41214226,Casa nogal,550000.0,"Condo entero en Medellín, Colombia",-75.59522,6.23657,42.0,4.67,2019-12,True,74.0,True,7.0,2019.0,MEDELLÍN,Belén,Comuna 16
923189204832381184,Luxury travel home Poblado,700000.0,"Vivienda rentada entero en Medellín, Colombia",-75.5616794,6.2256521,4.0,5.0,2021-10,True,23.0,True,3.0,2021.0,MEDELLÍN,Buenos Aires,Comuna 9
54358737,113 Hermoso ático de 5 dormitorios cerca del parque pobla,791679.0,"Condo entero en Medellín, Colombia",-75.57228,6.20962,26.0,4.42,2020-09,True,223.0,False,5.0,2020.0,MEDELLÍN,El Poblado,Comuna 6
1009637725114499456,"Loft grande de 3 dormitorios, gimnasio, balcón, piscina, sauna.",748137.0,"Vivienda rentada entero en Medellín, Colombia",-75.5901087,6.2707564,1.0,,2021-01,True,42.0,False,3.0,2021.0,MEDELLÍN,Robledo,Comuna 1
902123425926726656,¡Apto para huéspedes de Trump Provenza!,953420.0,"Vivienda rentada entero en Medellín, Colombia",-75.5668109,6.2089795,3.0,5.0,2019-12,True,529.0,True,3.0,2019.0,MEDELLÍN,El Poblado,Comuna 6
49231595,Cómodo apto cerca a estación floresta del metro,700000.0,"Vivienda rentada entero en Medellín, Colombia",-75.59764,6.25821,13.0,4.85,2020-12,True,145.0,False,3.0,2020.0,MEDELLÍN,Laureles Estadio,Comuna 10
850857894969219072,Apartamentos para grupos grandes cerca a la 70,700000.0,"Vivienda rentada entero en Medellín, Colombia",-75.58869,6.24447,0.0,,2022-10,True,51.0,True,3.0,2022.0,MEDELLÍN,Laureles Estadio,Comuna 10
49884452,PATRIMONIO CENTRAL DE MEDELLÍN_6BD/4BT_12MIN AL POBLADO,748137.0,"Alojamiento entero en Medellín, Colombia",-75.59025,6.23951,20.0,4.8,2019-05,True,406.0,True,6.0,2019.0,MEDELLÍN,Laureles Estadio,Comuna 10
694764265623023104,Linda casa en Laureles al lado del Metro Estadio,900000.0,"Alojamiento entero en Medellín, Colombia",-75.58657,6.2538,15.0,4.73,2022-02,True,121.0,True,6.0,2022.0,MEDELLÍN,Laureles Estadio,Comuna 10
1030487155785910784,Apartamento la 70,700643.0,"Vivienda rentada entero en Medellín, Colombia",-75.5880486,6.2516738,0.0,,2023-11,True,,True,3.0,2023.0,MEDELLÍN,Laureles Estadio,Comuna 10
988283049966456832,Apartamento amoblado S.M,250000.0,"Vivienda rentada entero en Medellín, Colombia",-75.60506207,6.241567451,0.0,,2023-09,True,4.0,True,2.0,2023.0,MEDELLÍN,Laureles Estadio,Comuna 10
712151410038491008,Casa grande Letsgo Medellín con Jacuzzy Laureles,1200000.0,"Villa entero en Medellín, Colombia",-75.5981211,6.2627909,7.0,5.0,2022-09,True,62.0,False,6.0,2022.0,MEDELLÍN,La América,Comuna 15
40459495,LOVELY CENTRAL HOME_6BD/4BT_12MIN TO EL POBLADO,748137.0,"Alojamiento entero en Medellín, Colombia",-75.59036,6.24073,2.0,,2019-08,True,14.0,True,6.0,2019.0,MEDELLÍN,Laureles Estadio,Comuna 10
999509362169351808,Apartamento familiar Estadio-Laureles,624000.0,"Vivienda rentada entero en Medellín, Colombia",-75.58693691,6.252891686,0.0,,2022-05,True,2.0,True,3.0,2022.0,MEDELLÍN,Laureles Estadio,Comuna 10
981270576876683008,Casa Hotel Sweet Home 2 Apartamentos Enteros,383429.0,"Alojamiento entero en Medellín, Colombia",-75.5847,6.23961,2.0,,2016-11,True,11.0,True,6.0,2016.0,MEDELLÍN,Laureles Estadio,Comuna 10
49159424,Casa para familias y grupos -El Poblado- 400 mpbs,927825.0,"Casa adosada entero en Medellín, Colombia",-75.57122,6.21411,1.0,,2015-11,True,288.0,True,5.0,2015.0,MEDELLÍN,El Poblado,Comuna 6
32912326,Estudio de cama tamaño king en un edificio divertido con jacuzzi,914944.0,"Vivienda rentada entero en Medellín, Colombia",-75.57019043,6.210384846,1.0,,2018-06,True,17.0,False,1.0,2018.0,MEDELLÍN,El Poblado,Comuna 6
860122912533800832,Apartamento luxury en el poblado,680000.0,"Vivienda rentada entero en Medellín, Colombia",-75.56659,6.21394,5.0,4.8,2016-04,True,5.0,False,3.0,2016.0,MEDELLÍN,El Poblado,Comuna 6
1008762314058834944,Apartamento amoblado S.M,250000.0,"Vivienda rentada entero en Medellín, Colombia",-75.60770911,6.245515118,0.0,,2023-09,True,4.0,True,2.0,2023.0,MEDELLÍN,La América,Comuna 15
762460068585513600,Apartmanto En la america,769000.0,"Vivienda rentada entero en Medellín, Colombia",-75.6021,6.2551,0.0,,2014-05,True,267.0,False,1.0,2014.0,MEDELLÍN,La América,Comuna 15
15821180,CHIC HOUSE FLAT - Sanctuary in the City #1,593760.0,"Alojamiento entero en Medellín, Colombia",-75.59131,6.24581,68.0,4.79,2012-02,True,1107.0,False,4.0,2012.0,MEDELLÍN,Laureles Estadio,Comuna 10
992983020953468800,Apto 5BR @ El poblado-provenza,791679.0,"Vivienda rentada entero en Medellín, Colombia",-75.56733,6.2076,3.0,4.0,2016-08,True,13.0,True,5.0,2016.0,MEDELLÍN,El Poblado,Comuna 6
30407950,ELEGANTE CASA PLANA - Santuario en la Ciudad - #4,593760.0,"Alojamiento entero en Medellín, Colombia",-75.591248,6.24593,60.0,4.78,2012-02,True,1107.0,False,4.0,2012.0,MEDELLÍN,Laureles Estadio,Comuna 10
27758083,Suite apta para huéspedes y jacuzzi en Poblado,972855.0,"Habitación en Medellín, Colombia",-75.57091,6.20939,1.0,,2017-02,,,False,1.0,2017.0,MEDELLÍN,El Poblado,Comuna 6
974010917287617408,Habitación privada en el primer piso,821090.0,"Habitación en Medellín, Colombia",-75.56055596,6.261658385,0.0,,2018-02,,,False,1.0,2018.0,MEDELLÍN,La Candelaria,Comuna 12
51670183,Casa grande,700000.0,"Habitación en Medellín, Colombia",-75.55967,6.25099,1.0,,2022-02,,,False,4.0,2022.0,MEDELLÍN,La Candelaria,Comuna 12
41110014,Dos apartamentos de 1 dormitorio los molinos laurles,262714.0,"Vivienda rentada entero en Medellín, Colombia",-75.60038,6.23328,2.0,,2014-05,True,267.0,False,2.0,2014.0,MEDELLÍN,Belén,Comuna 16
851509641058582400,Edificio Provenza Forever W&L 74,1021806.0,"Vivienda rentada entero en Medellín, Colombia",-75.56195654,6.202674046,39.0,4.9,2021-06,True,1167.0,False,3.0,2021.0,MEDELLÍN,El Poblado,Comuna 6
997078541575170816,Impresionante ático de 3 dormitorios| Jacuzzi en la azotea y vistas de 360 grados,989599.0,"Vivienda rentada entero en Medellín, Colombia",-75.59306366,6.251498572,9.0,4.78,2018-10,True,1019.0,False,3.0,2018.0,MEDELLÍN,Laureles Estadio,Comuna 10
7638590,Lujo de lujo en el piso 17/2 BR/ 2AC/PooL/Gym,593918.0,"Vivienda rentada entero en Medellín, Colombia",-75.55376869,6.206162211,214.0,4.8,2015-01,True,1626.0,False,2.0,2015.0,MEDELLÍN,El Poblado,Comuna 6
981116250454560256,The Spot Bldg 51,818942.0,"Vivienda rentada entero en Medellín, Colombia",-75.56474673,6.211540968,25.0,4.92,2021-06,True,1167.0,False,3.0,2021.0,MEDELLÍN,El Poblado,Comuna 6
42201661,Impresionante suite de 2 dormitorios con jacuzzi justo en el parque Lleras,1110053.0,"Apartamento con servicios incluidos entero en Medellín, Colombia",-75.56799,6.20798,152.0,4.89,2020-02,True,624.0,True,2.0,2020.0,MEDELLÍN,El Poblado,Comuna 6
1039251973290966016,Dúplex exótico en una villa tropical | Terraza grande + AC,886681.0,"Habitación en Medellín, Colombia",-75.56745933,6.20763135,0.0,,2021-02,,,False,1.0,2021.0,MEDELLÍN,El Poblado,Comuna 6
8325161,lux apartamento! -provenza- de Lujo!,887829.0,"Vivienda rentada entero en Medellín, Colombia",-75.56388,6.20524,218.0,4.82,2015-09,True,218.0,False,3.0,2015.0,MEDELLÍN,El Poblado,Comuna 6
1055724324666747648,Edificio Provenza Forever W&L 62,908061.0,"Vivienda rentada entero en Medellín, Colombia",-75.5655853,6.2070224,6.0,5.0,2021-06,True,1167.0,False,3.0,2021.0,MEDELLÍN,El Poblado,Comuna 6
1044994734170037632,Soleado apartamento con mirador.,665000.0,"Apartamento con servicios incluidos entero en Medellín, Colombia",-75.5619384,6.2241572,0.0,,2016-10,True,102.0,False,3.0,2016.0,MEDELLÍN,Buenos Aires,Comuna 9
46646481,Famoso apartamento - Parque Lleras - Apartamentos de lujo,989599.0,"Loft entero en Medellín, Colombia",-75.56838,6.21084,130.0,4.81,2020-01,True,363.0,True,1.0,2020.0,MEDELLÍN,El Poblado,Comuna 6
1045670253609085184,Casa en el poblado - Tesoro,1017143.0,"Alojamiento entero en Medellín, Colombia",-75.55826503,6.194814867,2.0,,2023-05,True,39.0,False,5.0,2023.0,MEDELLÍN,El Poblado,Comuna 6
1005400619271655552,Sofisticado Penthouse Medellín,700636.0,"Vivienda rentada entero en Medellín, Colombia",-75.58889,6.23826,1.0,,2014-12,True,23.0,False,4.0,2014.0,MEDELLÍN,Belén,Comuna 16
793002818019682304,Poblado luxury Jacuzzi BBQ large Terrace Villa,888888.0,"Vivienda rentada entero en Medellín, Colombia",-75.56440651,6.213340254,2.0,,2022-12,True,2.0,True,4.0,2022.0,MEDELLÍN,El Poblado,Comuna 6
1026867586581994368,Villa AG6 con piscina y jacuzzi en Poblado,1595714.0,"Alojamiento entero en Medellín, Colombia",-75.57747815,6.195939255,5.0,4.6,2018-08,True,1694.0,False,6.0,2018.0,MEDELLÍN,El Poblado,Comuna 6
935732563112102144,Increíble apartamento de 3 dormitorios con aire acondicionado en el corazón de Provenza°,809769.0,"Vivienda rentada entero en Medellín, Colombia",-75.5676275,6.2108436,24.0,4.92,2021-03,True,524.0,False,3.0,2021.0,MEDELLÍN,El Poblado,Comuna 6
618163646792505728,Lujo en Provenza 3 Dormitorios,1015913.0,"Vivienda rentada entero en Medellín, Colombia",-75.56098,6.20346,62.0,4.82,2021-06,True,1167.0,False,3.0,2021.0,MEDELLÍN,El Poblado,Comuna 6
561500997083544704,Bienvenidos al Poblado | Villa Privada | CAMAS 2x2,1121374.0,"Villa entero en Medellín, Colombia",-75.57491,6.18783,99.0,4.87,2015-05,True,714.0,True,9.0,2015.0,MEDELLÍN,El Poblado,Comuna 6
864809634453690880,PH Laureles: Terraza privada-Jacuzzi-Aire acondic.,628374.0,"Apartamento con servicios incluidos entero en Medellín, Colombia",-75.591437,6.2503644,23.0,4.96,2014-09,True,23.0,True,3.0,2014.0,MEDELLÍN,Laureles Estadio,Comuna 10
589356273210105216,PH gigante en Poblado: 2 Piso 4 BR/4 BA Condo-AC,1038802.0,"Condo entero en Medellín, Colombia",-75.56002,6.21055,33.0,4.79,2015-08,True,33.0,False,4.0,2015.0,MEDELLÍN,El Poblado,Comuna 6
929890723917936768,Amplio Vista Increíble| Cerca Provenza,655946.0,"Vivienda rentada entero en Medellín, Colombia",-75.5646733,6.2133147,26.0,5.0,2014-06,True,100.0,False,2.0,2014.0,MEDELLÍN,El Poblado,Comuna 6
35863254,"Colonial Villa in Laureles, Medellín",763417.0,"Villa entero en Medellín, Colombia",-75.6047,6.2436,97.0,4.92,2015-12,True,200.0,False,5.0,2015.0,MEDELLÍN,Laureles Estadio,Comuna 10
41108981,"801 Best Medellin experience El Poblado, jacuzzi",710000.0,"Vivienda rentada entero en Medellín, Colombia",-75.56809,6.18635,20.0,4.55,2019-11,True,435.0,False,3.0,2019.0,MEDELLÍN,El Poblado,Comuna 6
878178214007465088,Emerald Oasis: con terraza privada y jacuzzi.,710255.0,"Alojamiento entero en Medellín, Colombia",-75.5719643,6.2138215,29.0,4.69,2015-08,True,718.0,False,4.0,2015.0,MEDELLÍN,El Poblado,Comuna 6
781337955812915456,Gaia House (Laureles) Jacuzzi & 5 alcobas+Patios,749285.0,"Alojamiento entero en Medellín, Colombia",-75.5926414,6.2450639,66.0,4.92,2019-02,True,400.0,True,5.0,2019.0,MEDELLÍN,Laureles Estadio,Comuna 10
1049909851387341824,Deluxe Apt in Poblado.,910431.0,"Vivienda rentada entero en Medellín, Colombia",-75.5585787,6.2095175,0.0,,2022-08,True,45.0,False,3.0,2022.0,MEDELLÍN,El Poblado,Comuna 6
14025302,Ver apartamentos increíbles y cómodos,549188.0,"Vivienda rentada entero en Medellín, Colombia",-75.56931497,6.186621468,70.0,4.86,2016-07,True,317.0,True,4.0,2016.0,MEDELLÍN,El Poblado,Comuna 6
779060080570072960,Imperio Luxury (4),878571.0,"Alojamiento entero en Medellín, Colombia",-75.59706,6.25997,14.0,5.0,2021-02,True,17.0,True,4.0,2021.0,MEDELLÍN,Laureles Estadio,Comuna 10
857865969995815168,"Relajante, lujosa a 7 km del poblado / jacuzzi/",1139711.0,"Alojamiento entero en Medellín, Colombia",-75.58769357,6.243526844,9.0,5.0,2016-07,True,24.0,True,5.0,2016.0,MEDELLÍN,Laureles Estadio,Comuna 10
45848808,702 Hermoso y espacioso apartamento en El Poblado,670633.0,"Vivienda rentada entero en Medellín, Colombia",-75.56982,6.18611,39.0,4.74,2019-11,True,435.0,False,3.0,2019.0,MEDELLÍN,El Poblado,Comuna 6
1001036869095804032,Apartamento duplex con Jaccuzzi,833000.0,"Vivienda rentada entero en Medellín, Colombia",-75.58829516,6.245041472,3.0,5.0,2019-11,True,3.0,False,2.0,2019.0,MEDELLÍN,Laureles Estadio,Comuna 10
625519954035370880,* PH con aire acondicionado en el dúplex de lujo de Provenza,965295.0,"Condo entero en Medellín, Colombia",-75.560898,6.211557,18.0,4.94,2017-11,True,18.0,False,4.0,2017.0,MEDELLÍN,El Poblado,Comuna 6
1041420813529753984,5bdr Spacious Apto by El Tesoro Mall / Safest Area,900000.0,"Vivienda rentada entero en Medellín, Colombia",-75.55945262,6.198561634,1.0,,2018-02,True,101.0,True,5.0,2018.0,MEDELLÍN,El Poblado,Comuna 6
738341957796158592,Visitas | A 8 minutos de Provenza| Política de huéspedes flexible,653136.0,"Vivienda rentada entero en Medellín, Colombia",-75.56462701,6.213638942,74.0,5.0,2014-06,True,100.0,False,2.0,2014.0,MEDELLÍN,El Poblado,Comuna 6
53964791,CAFETERÍA PAZ 201,721576.0,"Apartamento con servicios incluidos entero en Medellín, Colombia",-75.56612,6.21002,106.0,4.83,2019-01,True,2756.0,True,3.0,2019.0,MEDELLÍN,El Poblado,Comuna 6
729599917460573952,202 El Poblado! Terraza con vistas a la ciudad,783571.0,"Vivienda rentada entero en Medellín, Colombia",-75.5692099,6.186676093,8.0,4.88,2022-09,True,95.0,False,3.0,2022.0,MEDELLÍN,El Poblado,Comuna 6
8558942,SANCtUARY SUiTES: ¡Impresionante loft en el corazón de la ciudad!,1026610.0,"Alojamiento entero en Medellín, Colombia",-75.59146,6.24635,103.0,4.85,2012-02,True,1107.0,False,5.0,2012.0,MEDELLÍN,Laureles Estadio,Comuna 10
1018092780063437952,"Jacuzzi Parque Lleras con aire acondicionado y apto para huéspedes, 100mg",945503.0,"Vivienda rentada entero en Medellín, Colombia",-75.5646344,6.2072791,3.0,4.33,2015-02,True,1465.0,False,4.0,2015.0,MEDELLÍN,El Poblado,Comuna 6
852916514890579072,3 dormitorios encantadores y acogedores,900000.0,"Vivienda rentada entero en Medellín, Colombia",-75.5680257,6.2129616,4.0,5.0,2023-03,True,4.0,False,3.0,2023.0,MEDELLÍN,El Poblado,Comuna 6
1047012069722472832,4 dormitorios en una villa de lujo en Poblado,742857.0,"Habitación en Medellín, Colombia",-75.55054127,6.207160202,0.0,,2021-02,,,False,4.0,2021.0,MEDELLÍN,El Poblado,Comuna 6
1040758842978314240,Casa Rustik,849423.0,"Alojamiento entero en Medellín, Colombia",-75.5946417,6.266511377,3.0,5.0,2023-11,True,3.0,True,7.0,2023.0,MEDELLÍN,Laureles Estadio,Comuna 10
729688931149555328,801 El Poblado! Supera la experiencia Medellín en el jacuzzi,840000.0,"Vivienda rentada entero en Medellín, Colombia",-75.56915596,6.186587147,4.0,3.75,2022-09,True,95.0,False,3.0,2022.0,MEDELLÍN,El Poblado,Comuna 6
813894524066739328,Poblado park manila,989599.0,"Vivienda rentada entero en Medellín, Colombia",-75.57280038,6.213752933,24.0,4.75,2020-01,True,363.0,False,3.0,2020.0,MEDELLÍN,El Poblado,Comuna 6
1015464991801586944,Vida energética: condominio definitivo en Medellín,712512.0,"Vivienda rentada entero en Medellín, Colombia",-75.55906,6.209698,1.0,,2016-10,True,1560.0,False,1.0,2016.0,MEDELLÍN,El Poblado,Comuna 6
931139939619310080,"Hermoso Apto en Laureles, Medellín, cerca de la 70",160286.0,"Vivienda rentada entero en Medellín, Colombia",-75.591185,6.2480342,4.0,5.0,2020-02,True,4.0,False,2.0,2020.0,MEDELLÍN,Laureles Estadio,Comuna 10
14650008,Traje de lujo-2 Hab-Pool y jacuzzi,851055.0,"Vivienda rentada entero en Medellín, Colombia",-75.55679,6.21199,11.0,4.91,2016-06,True,633.0,True,2.0,2016.0,MEDELLÍN,El Poblado,Comuna 6
903520112973077120,2BR Lux Apto en el emblemático jacuzzi privado | AC,851451.0,"Vivienda rentada entero en Medellín, Colombia",-75.56384,6.21055,26.0,4.92,2012-04,True,60.0,False,2.0,2012.0,MEDELLÍN,El Poblado,Comuna 6
676958425426421248,Departamento de 4 baños de 4 dormitorios y 4 baños a estrenar.,1056338.0,"Apartamento con servicios incluidos entero en Medellín, Colombia",-75.56827,6.20906,45.0,4.98,2021-04,True,134.0,False,4.0,2021.0,MEDELLÍN,El Poblado,Comuna 6
729680243668615552,702 Poblado! Hermosa vista,765000.0,"Vivienda rentada entero en Medellín, Colombia",-75.56918375,6.186555805,15.0,4.53,2022-09,True,95.0,False,4.0,2022.0,MEDELLÍN,El Poblado,Comuna 6
41861105,201 Enorme terraza y hermosas vistas en El Poblado,790000.0,"Vivienda rentada entero en Medellín, Colombia",-75.56868,6.1877,41.0,4.49,2019-11,True,435.0,False,4.0,2019.0,MEDELLÍN,El Poblado,Comuna 6
40288291,Gaia House (Laureles) 7 Habit'+ enorme terraza,683655.0,"Alojamiento entero en Medellín, Colombia",-75.5887146,6.246914864,89.0,4.97,2019-02,True,400.0,True,7.0,2019.0,MEDELLÍN,Laureles Estadio,Comuna 10
873200002553269120,"¡Despierta, 2 dormitorios, jacuzzi privado, balcón, 300 MB!",976022.0,"Vivienda rentada entero en Medellín, Colombia",-75.5646827,6.210952865,7.0,4.86,2022-06,True,859.0,True,2.0,2022.0,MEDELLÍN,El Poblado,Comuna 6
987679321447768832,Las Mañanitas,850000.0,"Casa de campo entero en Medellín, Colombia",-75.60861781,6.207513457,1.0,,2023-07,True,2.0,False,4.0,2023.0,MEDELLÍN,Corregimiento de Altavista,
41062436,Imperial 402 (desayuno/limpieza diaria incluida).,1662125.0,"Apartamento con servicios incluidos entero en Medellín, Colombia",-75.56612,6.20969,5.0,4.6,2019-10,True,569.0,True,3.0,2019.0,MEDELLÍN,El Poblado,Comuna 6
845194613024351872,Lujo de 2 dormitorios y 2 baños con vistas a la energía (1201),850000.0,"Vivienda rentada entero en Medellín, Colombia",-75.56017,6.21303,8.0,5.0,2016-02,True,9.0,False,2.0,2016.0,MEDELLÍN,El Poblado,Comuna 6
766919501015436160,Encantadora Casa en Laureles! 7H/9B/Jacuzzi/Sauna,930223.0,"Alojamiento entero en Medellín, Colombia",-75.5882781,6.2468058,20.0,4.85,2022-11,True,20.0,True,7.0,2022.0,MEDELLÍN,Laureles Estadio,Comuna 10
53629873,P202 Apartamento de 4 habitaciones en Provenza,639123.0,"Vivienda rentada entero en Medellín, Colombia",-75.56421661,6.204432964,120.0,4.86,2015-12,True,457.0,True,4.0,2015.0,MEDELLÍN,El Poblado,Comuna 6
28130043,Apartamento de lujo cerca de Provenza con aire acondicionado,641894.0,"Apartamento con servicios incluidos entero en Medellín, Colombia",-75.560471,6.21131,5.0,4.8,2018-01,True,1328.0,True,2.0,2018.0,MEDELLÍN,El Poblado,Comuna 6
710007037808945408,AC-Balcón-Deluxe-Jacuzzi- Wake 615,978872.0,"Vivienda rentada entero en Medellín, Colombia",-75.56575,6.21131,35.0,4.71,2022-06,True,859.0,True,2.0,2022.0,MEDELLÍN,El Poblado,Comuna 6
828948814159934976,"¡2 dormitorios, aire acondicionado, 300 mb, balcón, jacuzzi!",876666.0,"Vivienda rentada entero en Medellín, Colombia",-75.56465927,6.210984662,15.0,4.87,2022-06,True,859.0,True,2.0,2022.0,MEDELLÍN,El Poblado,Comuna 6
917438226759500544,¡Amable para HUÉSPEDES de lujo!,771333.0,"Vivienda rentada entero en Medellín, Colombia",-75.56797,6.20987,19.0,4.95,2018-05,True,74.0,True,3.0,2018.0,MEDELLÍN,El Poblado,Comuna 6
812889967180998912,"¡2 camas, aire acondicionado, 300 MB, balcón, jacuzzi, despierta 1416!",936201.0,"Vivienda rentada entero en Medellín, Colombia",-75.5646827,6.211006194,11.0,4.82,2022-06,True,859.0,True,2.0,2022.0,MEDELLÍN,El Poblado,Comuna 6
40801722,"VISTA ESPECTACULAR,  A 4 CUADRAS DEL PARQUE LLERAS",771887.0,"Vivienda rentada entero en Medellín, Colombia",-75.566464,6.211473,30.0,4.57,2019-12,True,30.0,False,4.0,2019.0,MEDELLÍN,El Poblado,Comuna 6
729215711665660160,¡201 El Poblado! Enorme terraza y hermosas vistas,810000.0,"Vivienda rentada entero en Medellín, Colombia",-75.56915794,6.186642427,19.0,4.53,2022-09,True,95.0,False,4.0,2022.0,MEDELLÍN,El Poblado,Comuna 6
51324806,"Parque Lleras King con aire acondicionado y apto para huéspedes, 100 megas.",1374118.0,"Vivienda rentada entero en Medellín, Colombia",-75.56519,6.20634,93.0,4.38,2015-02,True,1465.0,False,4.0,2015.0,MEDELLÍN,El Poblado,Comuna 6
857981348396196992,Apto de lujo con 2 habitaciones y Jacuzzi & WI-FI,714491.0,"Vivienda rentada entero en Medellín, Colombia",-75.56579,6.21175,6.0,4.33,2021-10,True,279.0,False,2.0,2021.0,MEDELLÍN,El Poblado,Comuna 6
47584396,Jacuzzi Provenza Penthouse/ Barbacoa / 2BR,785465.0,"Apartamento con servicios incluidos entero en Medellín, Colombia",-75.56580353,6.209205151,135.0,4.9,2020-12,True,397.0,True,2.0,2020.0,MEDELLÍN,El Poblado,Comuna 6
50655475,Nuevo ático moderno de 2 dormitorios en El Poblado,800150.0,"Vivienda rentada entero en Medellín, Colombia",-75.56652,6.20724,103.0,4.96,2019-06,True,593.0,False,2.0,2019.0,MEDELLÍN,El Poblado,Comuna 6
52335906,Mesa de billar y jacuzzi de 4 dormitorios  junto al parque LLeras,895746.0,"Vivienda rentada entero en Medellín, Colombia",-75.56969,6.20972,76.0,4.7,2015-09,True,1441.0,True,4.0,2015.0,MEDELLÍN,El Poblado,Comuna 6
1010954630366579584,Moderno 2 hab en edificio wake la mejor ubicacion,1061954.0,"Vivienda rentada entero en Medellín, Colombia",-75.5656735,6.2070399,0.0,,2018-10,True,83.0,False,2.0,2018.0,MEDELLÍN,El Poblado,Comuna 6
28134540,"Elegante apartamento cerca de Provenza con piscina, sauna y aire acondicionado",651091.0,"Apartamento con servicios incluidos entero en Medellín, Colombia",-75.560471,6.21131,22.0,4.82,2018-01,True,1328.0,True,2.0,2018.0,MEDELLÍN,El Poblado,Comuna 6
1042267668504500736,"Casa Estadio uso exclusivo, 3 pisos 23 personas",569264.0,"Alojamiento entero en Medellín, Colombia",-75.5856502,6.25615268,1.0,,2017-11,True,29.0,True,9.0,2017.0,MEDELLÍN,Laureles Estadio,Comuna 10
998682140788056064,Luxurytravelhomelleras,870000.0,"Vivienda rentada entero en Medellín, Colombia",-75.5657193,6.1821462,0.0,,2021-10,True,23.0,True,1.0,2021.0,MEDELLÍN,El Poblado,Comuna 6
634879039932565632,"Club nocturno, bar y jacuzzi",978278.0,"Vivienda rentada entero en Medellín, Colombia",-75.56893,6.20889,9.0,4.56,2021-01,True,107.0,True,1.0,2021.0,MEDELLÍN,El Poblado,Comuna 6
6245979,"CASA DEL RELOJ-JARDÍN, apartamento de 2 dormitorios con jardín",708553.0,"Apartamento con servicios incluidos entero en Medellín, Colombia",-75.56541,6.20623,49.0,4.94,2015-04,True,530.0,True,2.0,2015.0,MEDELLÍN,El Poblado,Comuna 6
29129783,Apartamento con clase cerca de Provenza con piscina y aire acondicionado en el techo,641894.0,"Apartamento con servicios incluidos entero en Medellín, Colombia",-75.56053,6.2113,25.0,4.88,2018-01,True,1328.0,True,2.0,2018.0,MEDELLÍN,El Poblado,Comuna 6
30009245,Apartamento boutique cerca de Provenza con balcón y aire acondicionado.,651091.0,"Apartamento con servicios incluidos entero en Medellín, Colombia",-75.560471,6.21131,37.0,4.84,2018-01,True,1328.0,True,2.0,2018.0,MEDELLÍN,El Poblado,Comuna 6
958976054712737920,Departamento Provenza,1000000.0,"Vivienda rentada entero en Medellín, Colombia",-75.56458185,6.206816063,0.0,,2022-07,True,,True,3.0,2022.0,MEDELLÍN,El Poblado,Comuna 6
802216098492446976,Hermosa Casa Laureles - Medellín,850000.0,"Alojamiento entero en Medellín, Colombia",-75.59508,6.266887,0.0,,2023-01,True,67.0,False,7.0,2023.0,MEDELLÍN,Laureles Estadio,Comuna 10
18868038,"Increíble vida energética con vistas a la ciudad, 2 dormitorios, apartamento El Poblado",866889.0,"Vivienda rentada entero en Medellín, Colombia",-75.559311,6.211231,132.0,4.83,2013-04,True,492.0,False,2.0,2013.0,MEDELLÍN,El Poblado,Comuna 6
958814073003747584,Habitación en Art District House con acceso a jacuzzi,933628.0,"Habitación privada en vivienda rentada en Medellín, Colombia",-75.5600943,6.261596155,0.0,,2015-07,True,3.0,True,1.0,2015.0,MEDELLÍN,La Candelaria,Comuna 12
854520994277575424,Casa quinta poblado,950015.0,"Alojamiento entero en Medellín, Colombia",-75.55682,6.18207,0.0,,2020-10,True,,True,7.0,2020.0,MEDELLÍN,El Poblado,Comuna 6
790211092008731904,Para Groupos los molinos laurles,352000.0,"Vivienda rentada entero en Medellín, Colombia",-75.60067,6.23364,1.0,,2014-05,True,267.0,True,2.0,2014.0,MEDELLÍN,Belén,Comuna 16
1029066034536196352,luXury EnIgMaTic,1017862.0,"Vivienda rentada entero en Medellín, Colombia",-75.56736719,6.208712482,1.0,,2018-12,True,397.0,False,1.0,2018.0,MEDELLÍN,El Poblado,Comuna 6
790196932004989696,Para Groupos Ubicacion la 70 estadio plaza mayor,361286.0,"Vivienda rentada entero en Medellín, Colombia",-75.59042,6.24957,0.0,,2014-05,True,267.0,True,2.0,2014.0,MEDELLÍN,Laureles Estadio,Comuna 10
26060608,h.,1048421.0,"Vivienda rentada entero en Medellín, Colombia",-75.57099,6.21065,0.0,,2018-06,True,17.0,False,3.0,2018.0,MEDELLÍN,El Poblado,Comuna 6
31169683,Penthouse Poblado Waterfall,681691.0,"Vivienda rentada entero en Medellín, Colombia",-75.57286,6.20808,0.0,,2016-01,True,8.0,False,4.0,2016.0,MEDELLÍN,El Poblado,Comuna 6
13249726,"Excelente ubicación en Poblado, Manila",964747.0,"Vivienda rentada entero en Medellín, Colombia",-75.57314,6.21495,21.0,4.38,2013-08,True,1477.0,False,3.0,2013.0,MEDELLÍN,El Poblado,Comuna 6
958015999521112576,Estudio Pvt a 5 minutos del Parque Lleras.,950015.0,"Vivienda rentada entero en Medellín, Colombia",-75.56956502,6.210942401,0.0,,2023-08,True,,True,1.0,2023.0,MEDELLÍN,El Poblado,Comuna 6
31315450,302Habitación Deluxe con balcón La Martina B,426000.0,"Habitación privada en alojamiento en Medellín, Colombia",-75.57057,6.21505,0.0,,2018-12,True,137.0,False,1.0,2018.0,MEDELLÍN,El Poblado,Comuna 6
8867811,"Loft de jacuzzi nuevo de lujo:Energy 701,piscina en la encimera.",1155694.0,"Loft entero en Medellín, Colombia",-75.55927,6.21238,193.0,4.9,2014-09,True,6452.0,False,1.0,2014.0,MEDELLÍN,El Poblado,Comuna 6
1060248080675877376,Morph 201: techos altos y moderno apartamento/jacuzzi/barbacoa.,1023523.0,"Vivienda rentada entero en Medellín, Colombia",-75.5671467,6.2017048,0.0,,2017-01,True,3676.0,False,3.0,2017.0,MEDELLÍN,El Poblado,Comuna 6
778303647284556032,"¡Ac + View + Jacuzzi, WAKE 1111!",1516739.0,"Vivienda rentada entero en Medellín, Colombia",-75.56527,6.21176,33.0,4.88,2022-06,True,859.0,False,3.0,2022.0,MEDELLÍN,El Poblado,Comuna 6
787622279289807232,¡ Terrace Jacuzzi Ac Wake 612 !,1411208.0,"Vivienda rentada entero en Medellín, Colombia",-75.56461296,6.211118185,16.0,5.0,2022-06,True,859.0,True,2.0,2022.0,MEDELLÍN,El Poblado,Comuna 6
655103438008124672,Casa de lujo/jacuzzi/cine en casa/10minToProvenza,1095922.0,"Alojamiento entero en Medellín, Colombia",-75.54948,6.20514,28.0,4.86,2020-10,True,29.0,False,4.0,2020.0,MEDELLÍN,El Poblado,Comuna 6
1002206811772526336,Acogedora villa salvaje/piscina climatizada/Poblado a 15 minutos.,1126286.0,"Alojamiento entero en Medellín, Colombia",-75.6001443,6.218150748,13.0,5.0,2020-03,True,106.0,True,5.0,2020.0,MEDELLÍN,Belén,Comuna 16
787581308600734208,Apartamento Provenza | A 2 jacuzzi privado + desayuno,1000000.0,"Vivienda rentada entero en Medellín, Colombia",-75.56515,6.20567,62.0,4.81,2016-07,,323.0,True,3.0,2016.0,MEDELLÍN,El Poblado,Comuna 6
52112985,Sweet Helen Garden,792857.0,"Alojamiento entero en Medellín, Colombia",-75.574219,6.207188,133.0,4.95,2020-09,True,249.0,True,2.0,2020.0,MEDELLÍN,El Poblado,Comuna 6
764479726362411520,Apartamento de lujo en WakeHotel / Jacuzzi privado,1094220.0,"Vivienda rentada entero en Medellín, Colombia",-75.56518,6.20978,55.0,4.91,2020-07,True,297.0,True,2.0,2020.0,MEDELLÍN,El Poblado,Comuna 6
52906615,"Sorprendente, parque de Lleras, piscina de billar y jacuzzi",1500885.0,"Vivienda rentada entero en Medellín, Colombia",-75.56838,6.20916,127.0,4.87,2021-06,True,1167.0,False,4.0,2021.0,MEDELLÍN,El Poblado,Comuna 6
876909809446038528,Hermoso Penthouse en Provenza con jacuzzi.,1029183.0,"Vivienda rentada entero en Medellín, Colombia",-75.56237,6.20901,22.0,4.95,2022-10,True,197.0,True,4.0,2022.0,MEDELLÍN,El Poblado,Comuna 6
913968400782277376,LuxUrY PaLace ParK MaNilAPobLaDo,1034844.0,"Apartamento con servicios incluidos entero en Medellín, Colombia",-75.57142,6.21166,9.0,4.56,2018-12,True,397.0,False,3.0,2018.0,MEDELLÍN,El Poblado,Comuna 6
887650947050643328,Extraordinaria casa renovada de varios niveles con jacuzzi.,1579401.0,"Alojamiento entero en Medellín, Colombia",-75.5548946,6.2038929,21.0,4.67,2018-11,True,273.0,False,6.0,2018.0,MEDELLÍN,El Poblado,Comuna 6
600693663679027456,Ático de concepto abierto Loft / Nido Sky / 18,1152000.0,"Loft entero en Medellín, Colombia",-75.57308,6.21128,45.0,4.87,2010-09,True,1401.0,True,2.0,2010.0,MEDELLÍN,El Poblado,Comuna 6
34550038,Retiro en la azotea | Escapada al ático Luxe en el tercer piso,1158108.0,"Condo entero en Medellín, Colombia",-75.56725,6.2023,148.0,4.95,2014-11,True,165.0,False,3.0,2014.0,MEDELLÍN,El Poblado,Comuna 6
981836313302545920,Penthouse Duplex en Laureles con Jacuzzi y A/C,1102691.0,"Vivienda rentada entero en Medellín, Colombia",-75.5921526,6.2402195,13.0,5.0,2022-01,True,131.0,False,5.0,2022.0,MEDELLÍN,Laureles Estadio,Comuna 10
53606561,"Calle 6, 3 dormitorios w/ jacuzzi en Provenza",947205.0,"Vivienda rentada entero en Medellín, Colombia",-75.56404,6.20376,5.0,4.6,2015-05,True,916.0,False,3.0,2015.0,MEDELLÍN,El Poblado,Comuna 6
1060225837310759936,Morph 601-Elegance & tranquility w Jacuzzi/AC/BBQ,1023523.0,"Vivienda rentada entero en Medellín, Colombia",-75.5671467,6.2017048,0.0,,2017-01,True,3676.0,False,3.0,2017.0,MEDELLÍN,El Poblado,Comuna 6
17007356,Energía Viviendo! JACUZZI! 1 BR+2 BR/Oficina 18fl,975468.0,"Apartamento con servicios incluidos entero en Medellín, Colombia",-75.55933,6.2111,114.0,4.9,2011-09,True,424.0,False,1.0,2011.0,MEDELLÍN,El Poblado,Comuna 6
981162744256956416,The Spot Bldg 52,876325.0,"Vivienda rentada entero en Medellín, Colombia",-75.56605354,6.210065183,21.0,4.95,2021-06,True,1167.0,False,3.0,2021.0,MEDELLÍN,El Poblado,Comuna 6
941552921522611712,Vista panorámica poblado,1000000.0,"Vivienda rentada entero en Medellín, Colombia",-75.56086,6.218339,5.0,5.0,2023-05,True,13.0,False,3.0,2023.0,MEDELLÍN,Buenos Aires,Comuna 9
954991995853418496,"Disfruta de un lugar para todos, cerca de todo",980000.0,"Alojamiento entero en Medellín, Colombia",-75.6027338,6.2298506,9.0,4.78,2017-08,True,9.0,True,7.0,2017.0,MEDELLÍN,Belén,Comuna 16
903146181665933568,Friends Palace New Manila,1108351.0,"Vivienda rentada entero en Medellín, Colombia",-75.57062779,6.212299048,5.0,4.2,2020-01,True,363.0,False,3.0,2020.0,MEDELLÍN,El Poblado,Comuna 6
774068372640304768,"Apartamento, Laureles  - Estadio.",1000000.0,"Vivienda rentada entero en Medellín, Colombia",-75.5951,6.26254,12.0,4.67,2022-12,True,12.0,False,2.0,2022.0,MEDELLÍN,Laureles Estadio,Comuna 10
993592075181970560,Casa Shangri-la,1200000.0,"Alojamiento entero en Medellín, Colombia",-75.57651419,6.195550723,0.0,,2023-10,True,,True,5.0,2023.0,MEDELLÍN,El Poblado,Comuna 6
992191941101203968,Top-Notch apartment in El Poblado | Provenza°,589801.0,"Vivienda rentada entero en Medellín, Colombia",-75.5648325,6.2107187,18.0,4.94,2021-03,True,524.0,False,2.0,2021.0,MEDELLÍN,El Poblado,Comuna 6
882878580908314624,Casa privada nueva con piscina Medellín de 15 minutos en Poblado,1085749.0,"Villa entero en Medellín, Colombia",-75.59156,6.23745,4.0,5.0,2022-09,True,62.0,True,6.0,2022.0,MEDELLÍN,Belén,Comuna 16
961212745211417344,Apartamento con vistas a la ciudad con jacuzzi y aire acondicionado,834668.0,"Vivienda rentada entero en Medellín, Colombia",-75.5621815,6.2000985,20.0,5.0,2018-10,True,104.0,True,1.0,2018.0,MEDELLÍN,El Poblado,Comuna 6
831858168959624704,El poblado/Elegante/Confortable/AC/Jacuzzi/Billar,907621.0,"Alojamiento entero en Medellín, Colombia",-75.5548946,6.2038929,27.0,4.89,2021-07,True,30.0,True,5.0,2021.0,MEDELLÍN,El Poblado,Comuna 6
882051456764049664,Increible Casa con Jacuzzi en Poblado-Lleras.,1053488.0,"Alojamiento entero en Medellín, Colombia",-75.57069,6.2113988,14.0,4.71,2021-11,True,171.0,False,3.0,2021.0,MEDELLÍN,El Poblado,Comuna 6
1055899091667213568,Morph 1401-Luxe & bright ap in poblado/Jacuzzi/AC,1023523.0,"Vivienda rentada entero en Medellín, Colombia",-75.5671467,6.2017048,5.0,4.4,2017-01,True,3676.0,False,3.0,2017.0,MEDELLÍN,El Poblado,Comuna 6
1050000318146566016,"Vida elevada: jacuzzi, balcón, aire acondicionado - Morph 702",1023523.0,"Vivienda rentada entero en Medellín, Colombia",-75.5671467,6.2017048,2.0,,2017-01,True,3676.0,False,3.0,2017.0,MEDELLÍN,El Poblado,Comuna 6
1039981590968105216,Morph 502-Bright & Spacious in Poblado/Jacuzzi/BBQ,1023523.0,"Vivienda rentada entero en Medellín, Colombia",-75.5671467,6.2017048,2.0,,2017-01,True,3676.0,False,3.0,2017.0,MEDELLÍN,El Poblado,Comuna 6
1044908587450156544,Morph 1001-Exclusive  in Poblado/priv Jacuzzi/BBQ,1023523.0,"Vivienda rentada entero en Medellín, Colombia",-75.5671467,6.2017048,6.0,5.0,2017-01,True,3676.0,False,3.0,2017.0,MEDELLÍN,El Poblado,Comuna 6
765886840605808896,"502 KORAL- Penthouse, 2 pisos, 6 cuartos, 5 baños.",1000000.0,"Vivienda rentada entero en Medellín, Colombia",-75.59715,6.24169,7.0,4.43,2011-07,True,138.0,True,5.0,2011.0,MEDELLÍN,Laureles Estadio,Comuna 10
52424510,Paz 401 - Agua,943128.0,"Apartamento con servicios incluidos entero en Medellín, Colombia",-75.56473,6.20944,88.0,4.86,2019-01,True,2756.0,True,3.0,2019.0,MEDELLÍN,El Poblado,Comuna 6
992921015146896896,Ll203  Apartamento @ PobladoLlerasPark con jacuzzi,884543.0,"Vivienda rentada entero en Medellín, Colombia",-75.5674519,6.2097133,18.0,4.78,2023-10,True,18.0,True,4.0,2023.0,MEDELLÍN,El Poblado,Comuna 6
967973080320814336,Increíble villa de 5 dormitorios con aire acondicionado en el corazón de Provenza,787721.0,"Vivienda rentada entero en Medellín, Colombia",-75.5676275,6.2108436,16.0,4.88,2021-03,True,524.0,False,5.0,2021.0,MEDELLÍN,El Poblado,Comuna 6
1022073306728608000,Villa Estadio Piscina Privada 5 minutos laureles !,1085714.0,"Alojamiento entero en Medellín, Colombia",-75.59514544,6.262661586,0.0,,2022-09,True,62.0,True,4.0,2022.0,MEDELLÍN,Laureles Estadio,Comuna 10
943732778494443264,¡Impresionante apartamento en el corazón de El poblado + View!,853642.0,"Vivienda rentada entero en Medellín, Colombia",-75.56973699,6.186697704,11.0,4.91,2020-01,True,146.0,False,4.0,2020.0,MEDELLÍN,El Poblado,Comuna 6
1039879674977411456,Morph 902-Luxury Apt in Poblado/Jacuzzi/Balcony,989599.0,"Vivienda rentada entero en Medellín, Colombia",-75.5671467,6.2017048,0.0,,2021-10,True,240.0,False,3.0,2021.0,MEDELLÍN,El Poblado,Comuna 6
49209715,Apto Moderno con hermosa vista y acceso a piscina,725714.0,"Vivienda rentada entero en Medellín, Colombia",-75.56903522,6.186600763,22.0,4.82,2017-01,True,22.0,False,4.0,2017.0,MEDELLÍN,El Poblado,Comuna 6
46353400,BR VILLA Poblado Mansion,1150000.0,"Alojamiento entero en Medellín, Colombia",-75.55756,6.20314,112.0,4.79,2018-07,True,464.0,False,3.0,2018.0,MEDELLÍN,El Poblado,Comuna 6
953515023131710464,Villa con piscina de 4 dormitorios en laureles,1038802.0,"Alojamiento entero en Medellín, Colombia",-75.5893563,6.2524212,4.0,4.5,2015-05,True,916.0,False,4.0,2015.0,MEDELLÍN,Laureles Estadio,Comuna 10
1000018210195036032,Casa en Laureles el mejor barrio para turistas,1040000.0,"Alojamiento entero en Medellín, Colombia",-75.59437763,6.247261548,0.0,,2018-07,True,377.0,False,5.0,2018.0,MEDELLÍN,Laureles Estadio,Comuna 10
738373567021223808,Ático dúplex de 5 dormitorios a 2 manzanas de LLeras.,1094220.0,"Apartamento con servicios incluidos entero en Medellín, Colombia",-75.56969,6.20828,18.0,4.39,2015-09,True,1441.0,True,5.0,2015.0,MEDELLÍN,El Poblado,Comuna 6
1000952186645559168,LuXUrY  MaNiLa cOoL HouSe PobLaDo,1085432.0,"Alojamiento entero en Medellín, Colombia",-75.57302105,6.213786877,4.0,5.0,2018-12,True,397.0,False,3.0,2018.0,MEDELLÍN,El Poblado,Comuna 6
1020266899325059840,Morph 902-Luxury Apt in Poblado/Jacuzzi/Balcony,1023523.0,"Vivienda rentada entero en Medellín, Colombia",-75.5671467,6.2017048,11.0,5.0,2017-01,True,3676.0,False,3.0,2017.0,MEDELLÍN,El Poblado,Comuna 6
1039998850292760576,"Techos altos modernos, jacuzzi, barbacoa - Morph 401",1023523.0,"Vivienda rentada entero en Medellín, Colombia",-75.5671467,6.2017048,5.0,5.0,2017-01,True,3676.0,False,3.0,2017.0,MEDELLÍN,El Poblado,Comuna 6
1044337534813518336,Morph 1302: apartamento espacioso y privado con jacuzzi/barbacoa.,1023523.0,"Vivienda rentada entero en Medellín, Colombia",-75.5671467,6.2017048,4.0,4.75,2017-01,True,3676.0,False,3.0,2017.0,MEDELLÍN,El Poblado,Comuna 6
53483223,LuXurY PRoVEnZa TeRrAcE MiRRoR,921752.0,"Loft entero en Medellín, Colombia",-75.56831,6.20942,57.0,4.56,2020-01,True,363.0,True,2.0,2020.0,MEDELLÍN,El Poblado,Comuna 6
992254914659421184,lujoso apartamento,1000000.0,"Vivienda rentada entero en Medellín, Colombia",-75.56636791,6.191850601,1.0,,2023-09,True,,False,3.0,2023.0,MEDELLÍN,El Poblado,Comuna 6
860693987600894464,"Familia,Diversión y Lujo en el Corazón de Medallo",857143.0,"Vivienda rentada entero en Medellín, Colombia",-75.59622413,6.26523762,2.0,,2023-03,True,2.0,True,4.0,2023.0,MEDELLÍN,Laureles Estadio,Comuna 10
650924440005862272,Brand new 4 bedroom Penthouse next to Lleras Park.,1110053.0,"Apartamento con servicios incluidos entero en Medellín, Colombia",-75.56811,6.21011,54.0,4.98,2021-04,True,134.0,False,4.0,2021.0,MEDELLÍN,El Poblado,Comuna 6
855826836971195392,¡Precioso apartamento en el corazón de El Poblado + View!,710655.0,"Vivienda rentada entero en Medellín, Colombia",-75.57022,6.18713,26.0,4.96,2020-01,True,146.0,False,4.0,2020.0,MEDELLÍN,El Poblado,Comuna 6
1045116896399719552,Moderno apartamento con vista.,931000.0,"Apartamento con servicios incluidos entero en Medellín, Colombia",-75.56193139,6.223965341,0.0,,2016-10,True,102.0,False,3.0,2016.0,MEDELLÍN,Buenos Aires,Comuna 9
821540094204730752,Hermoso Apartamento con Piscina,989599.0,"Vivienda rentada entero en Medellín, Colombia",-75.57263,6.2235,2.0,,2015-11,True,19.0,False,1.0,2015.0,MEDELLÍN,El Poblado,Comuna 6
1018334590714605952,Casa campestre la Bonita,1000000.0,"Cabaña entero en Medellín, Colombia",-75.64667393,6.288826957,0.0,,2023-02,True,,True,4.0,2023.0,MEDELLÍN,,
937599318252896256,Provenza 5 Min-Lleras+Estacionamiento 24/7 Seguridad,933916.0,"Condo entero en Medellín, Colombia",-75.56428703,6.206079833,27.0,5.0,2022-12,True,39.0,True,4.0,2022.0,MEDELLÍN,El Poblado,Comuna 6
48482490,Jacuzzi privado Provenza: increíble apartamento de 3 dormitorios,981405.0,"Apartamento con servicios incluidos entero en Medellín, Colombia",-75.56572723,6.209207058,129.0,4.91,2020-12,True,397.0,True,3.0,2020.0,MEDELLÍN,El Poblado,Comuna 6
968776957415252608,"apartamento fresco, tranquilo, luz, cómodo.",1000000.0,"Vivienda rentada entero en Medellín, Colombia",-75.59813265,6.260202429,0.0,,2023-07,True,15.0,False,3.0,2023.0,MEDELLÍN,La América,Comuna 15
984031473881865216,"Cocina/chef de ático de lujo todo incluido, jacuzzi",625387.0,"Vivienda rentada entero en Medellín, Colombia",-75.56788203,6.208229471,11.0,5.0,2023-09,True,11.0,True,6.0,2023.0,MEDELLÍN,El Poblado,Comuna 6
968074882957228800,502 colinas de Poblado Apartamento Moderno,750000.0,"Vivienda rentada entero en Medellín, Colombia",-75.56925252,6.186624479,0.0,,2023-06,True,6.0,False,4.0,2023.0,MEDELLÍN,El Poblado,Comuna 6
50348886,Amplio ático de 3 dormitorios con diamantes en el parque Lleras,1015329.0,"Vivienda rentada entero en Medellín, Colombia",-75.56709,6.2078,0.0,,2021-01,True,42.0,False,3.0,2021.0,MEDELLÍN,El Poblado,Comuna 6
968026374330924672,302 Amplia vista del Poblado,750000.0,"Vivienda rentada entero en Medellín, Colombia",-75.56903396,6.186543112,0.0,,2023-06,True,6.0,False,4.0,2023.0,MEDELLÍN,El Poblado,Comuna 6
908870786271570432,Tropical 4BR Home A/C El Poblado/Terrace & Jacuzzi,1238424.0,"Alojamiento entero en Medellín, Colombia",-75.5715116,6.213455933,16.0,4.69,2023-06,True,18.0,True,4.0,2023.0,MEDELLÍN,El Poblado,Comuna 6
47747355,Casa Lleras Park de 2 pisos,944355.0,"Alojamiento entero en Medellín, Colombia",-75.56958008,6.210467815,158.0,4.64,2019-01,True,2756.0,False,5.0,2019.0,MEDELLÍN,El Poblado,Comuna 6
732796055671514880,Las 5 mejores casas Colombia Villas Estadio 50 personas,2493790.0,"Villa entero en Medellín, Colombia",-75.59821,6.26156,22.0,4.82,2022-09,True,62.0,False,10.0,2022.0,MEDELLÍN,La América,Comuna 15
941469149859607680,apartamento familiar y cómodo,1000000.0,"Vivienda rentada entero en Medellín, Colombia",-75.59928677,6.260662545,2.0,,2023-07,True,15.0,False,4.0,2023.0,MEDELLÍN,La América,Comuna 15
52288664,"Apartamento amplio y Nuevo, vista espectacular",1000000.0,"Condo entero en Medellín, Colombia",-75.56155,6.1934,6.0,4.83,2021-06,,46.0,False,3.0,2021.0,MEDELLÍN,El Poblado,Comuna 6
913113981174076800,"Casa Colibri - Moderno, 5 Hab., Gran Terraza Verde",800000.0,"Vivienda rentada entero en Medellín, Colombia",-75.5850181,6.2482091,26.0,5.0,2014-11,True,39.0,False,5.0,2014.0,MEDELLÍN,Laureles Estadio,Comuna 10
932773787417128320,301 Modern space El Poblado,750000.0,"Vivienda rentada entero en Medellín, Colombia",-75.5690594,6.1870298,1.0,,2023-06,True,6.0,False,4.0,2023.0,MEDELLÍN,El Poblado,Comuna 6
53542495,Jacuzzi privado Provenza/Hammock Net 3BR Apartment,961336.0,"Apartamento con servicios incluidos entero en Medellín, Colombia",-75.56541443,6.208537102,107.0,4.95,2021-11,True,206.0,False,3.0,2021.0,MEDELLÍN,El Poblado,Comuna 6
52828081,Casa Jeri El poblado Mejor ubicación y restaurantes.,1227103.0,"Alojamiento entero en Medellín, Colombia",-75.57128335,6.213278883,102.0,4.99,2013-09,True,102.0,True,7.0,2013.0,MEDELLÍN,El Poblado,Comuna 6
19409517,6 BD Penthouse with Pool Table 2 Blocks to Lleras,955122.0,"Vivienda rentada entero en Medellín, Colombia",-75.56865,6.20956,212.0,4.74,2015-09,True,1441.0,True,6.0,2015.0,MEDELLÍN,El Poblado,Comuna 6
50922532,Ático espacioso de 2 pisos del dormitorio del aire acondicionado,1050954.0,"Vivienda rentada entero en Medellín, Colombia",-75.57476,6.21246,0.0,,2021-01,True,42.0,False,3.0,2021.0,MEDELLÍN,El Poblado,Comuna 6
1016677329329264000,Casa de 4 Hab en Laureles - Estadio 5 Min metro,989599.0,"Vivienda rentada entero en Medellín, Colombia",-75.58911,6.25267,0.0,,2015-01,True,1970.0,False,4.0,2015.0,MEDELLÍN,Laureles Estadio,Comuna 10
555155828258295360,Apartamento Bar en París Suites de Lujo,555086.0,"Vivienda rentada entero en Medellín, Colombia",-75.56913,6.20838,6.0,5.0,2022-02,True,64.0,False,1.0,2022.0,MEDELLÍN,El Poblado,Comuna 6
53610561,"Casa dúplex con patio grande, excelente ubicación GH",988888.0,"Alojamiento entero en Medellín, Colombia",-75.58079,6.25451,3.0,5.0,2019-01,True,981.0,True,6.0,2019.0,MEDELLÍN,Laureles Estadio,Comuna 10
916147724762412032,Bar de 2 apartamentos en suites de lujo,1140018.0,"Vivienda rentada entero en Medellín, Colombia",-75.5680527,6.2080486,0.0,,2022-02,True,64.0,True,2.0,2022.0,MEDELLÍN,El Poblado,Comuna 6
947837316436963072,Laureles Exclusive 150 mC,980000.0,"Vivienda rentada entero en Medellín, Colombia",-75.59820033,6.241876345,1.0,,2020-01,True,99.0,False,3.0,2020.0,MEDELLÍN,Laureles Estadio,Comuna 10
959467948447313920,Piso completo Art District House PVT BR/baños,1094774.0,"Vivienda rentada entero en Medellín, Colombia",-75.56031258,6.262580639,0.0,,2015-07,True,3.0,True,4.0,2015.0,MEDELLÍN,La Candelaria,Comuna 12
50152590,"Increíble teléfono de 4 dormitorios, 2 jacuzzis, balcón, azotea",1052934.0,"Vivienda rentada entero en Medellín, Colombia",-75.57483,6.21407,33.0,4.82,2020-02,True,932.0,False,4.0,2020.0,MEDELLÍN,El Poblado,Comuna 6
932709895753575168,10 Habitaciones Privadas.,1216020.0,"Vivienda rentada entero en Medellín, Colombia",-75.5718793,6.2728733,1.0,,2019-12,,315.0,True,10.0,2019.0,MEDELLÍN,Castilla,Comuna 5
959445689748972800,A 5 minutos del centro de Party Vibe Art District,1266687.0,"Vivienda rentada entero en Medellín, Colombia",-75.55915892,6.263174459,0.0,,2023-08,True,,True,1.0,2023.0,MEDELLÍN,La Candelaria,Comuna 12
1029090569821970944,Crazy Loft LuxURy,1000920.0,"Vivienda rentada entero en Medellín, Colombia",-75.56680395,6.209330713,0.0,,2018-12,True,397.0,False,1.0,2018.0,MEDELLÍN,El Poblado,Comuna 6
942722976336512000,"Gozar, descansar, respirar, relax y ahorrar",1000000.0,"Vivienda rentada entero en Medellín, Colombia",-75.5618193,6.2161688,1.0,,2023-07,True,,True,3.0,2023.0,MEDELLÍN,Buenos Aires,Comuna 9
47075741,????????,870847.0,"Vivienda rentada entero en Medellín, Colombia",-75.57038,6.20902,0.0,,2019-10,True,7.0,True,3.0,2019.0,MEDELLÍN,El Poblado,Comuna 6
747835182429912448,"Casa de lujo con piscina privada climatizada, jacuzzi y mucho más",1543775.0,"Alojamiento entero en Medellín, Colombia",-75.56151522,6.212740884,46.0,4.74,2016-03,True,7642.0,True,2.0,2016.0,MEDELLÍN,El Poblado,Comuna 6
758062469228314752,Provenza Forever W&L Edificio 51 Jacuzzi y Billard,1412659.0,"Vivienda rentada entero en Medellín, Colombia",-75.5618821,6.2026787,60.0,4.87,2021-06,True,1167.0,False,3.0,2021.0,MEDELLÍN,El Poblado,Comuna 6
53819389,"EXCLUSIVO ÁTICO EN LAURELES, LOFT 43 MEDELLÍN",1418571.0,"Apartamento con servicios incluidos entero en Medellín, Colombia",-75.5899,6.24792,97.0,4.88,2021-11,True,1840.0,False,3.0,2021.0,MEDELLÍN,Laureles Estadio,Comuna 10
1026727677462261248,Morph 1702 - Elegante 3B/Jacuzzi/aire acondicionado/barbacoa/gimnasio/piscina,1068767.0,"Vivienda rentada entero en Medellín, Colombia",-75.57057796,6.204025898,9.0,4.89,2016-06,True,515.0,False,3.0,2016.0,MEDELLÍN,El Poblado,Comuna 6
723903301713049856,Energy 803 Exclusive Luxury Apartment El Poblado,1123631.0,"Vivienda rentada entero en Medellín, Colombia",-75.55832,6.211,46.0,4.96,2016-05,True,633.0,False,1.0,2016.0,MEDELLÍN,El Poblado,Comuna 6
981195250626109696,The Spot Bldg 41,1412270.0,"Vivienda rentada entero en Medellín, Colombia",-75.56478547,6.210400397,20.0,5.0,2021-06,True,1167.0,False,4.0,2021.0,MEDELLÍN,El Poblado,Comuna 6
950778028969469184,Ático de primera línea con jacuzzi privado,866889.0,"Vivienda rentada entero en Medellín, Colombia",-75.5931624,6.2455011,34.0,4.94,2021-11,,734.0,True,3.0,2021.0,MEDELLÍN,Laureles Estadio,Comuna 10
1026794713360952448,Villa AG8 con sala de fiestas y jacuzzi en Poblado,2053929.0,"Alojamiento entero en Medellín, Colombia",-75.57840567,6.195529629,2.0,,2018-08,True,1695.0,False,8.0,2018.0,MEDELLÍN,El Poblado,Comuna 6
934993621649853568,Espaciosa casa Poblado/AC/Jacuzzi/Permite invitado,1131547.0,"Casa adosada entero en Medellín, Colombia",-75.55482486,6.20394623,27.0,5.0,2019-04,True,167.0,True,5.0,2019.0,MEDELLÍN,El Poblado,Comuna 6
963908541759950720,PH en tierra grata bosque santo palma,1000000.0,"Vivienda rentada entero en Medellín, Colombia",-75.56085549,6.218173558,5.0,4.8,2023-05,True,13.0,False,3.0,2023.0,MEDELLÍN,Buenos Aires,Comuna 9
1046747852772307456,"A 1 cuadra de LLeras, 6 Bd con jacuzzi con cascada",1432386.0,"Vivienda rentada entero en Medellín, Colombia",-75.56866893,6.210159412,10.0,5.0,2015-09,True,1441.0,True,6.0,2015.0,MEDELLÍN,El Poblado,Comuna 6
1055696487090687616,Impresionante casa de 5 dormitorios con ventilador en El Poblado,752095.0,"Vivienda rentada entero en Medellín, Colombia",-75.57952541,6.193233412,1.0,,2016-04,True,36884.0,False,5.0,2016.0,MEDELLÍN,El Poblado,Comuna 6
15164087,Casa de estilo Japandi/3 Br/Bañera/Mejor ubicación.,791442.0,"Vivienda rentada entero en Medellín, Colombia",-75.560434,6.20505,149.0,4.68,2016-09,True,1542.0,True,3.0,2016.0,MEDELLÍN,El Poblado,Comuna 6
29514156,Apartamento  Pent-house milla de oro,1300000.0,"Vivienda rentada entero en Medellín, Colombia",-75.5712,6.20454,20.0,4.9,2018-10,True,62.0,False,4.0,2018.0,MEDELLÍN,El Poblado,Comuna 6
928469528115255040,"1301 Luxury Penthouse, Poblado",1299832.0,"Vivienda rentada entero en Medellín, Colombia",-75.56935659,6.187490988,14.0,4.79,2020-01,True,146.0,False,6.0,2020.0,MEDELLÍN,El Poblado,Comuna 6
720813684090127872,"Lujo y estilo 
En pleno corazón de El Poblado",1155852.0,"Condo entero en Medellín, Colombia",-75.55663,6.19058,23.0,4.96,2022-09,True,27.0,False,3.0,2022.0,MEDELLÍN,El Poblado,Comuna 6
765452838279107584,Provenza Forever W&L Bldg 94 Billard,1072849.0,"Vivienda rentada entero en Medellín, Colombia",-75.56261,6.20347,61.0,4.87,2021-06,True,1167.0,False,3.0,2021.0,MEDELLÍN,El Poblado,Comuna 6
922513171446189568,Casa con terraza y Jacuzzi en Poblado Manila,1084047.0,"Alojamiento entero en Medellín, Colombia",-75.57169,6.21363,13.0,4.77,2023-06,True,319.0,True,3.0,2023.0,MEDELLÍN,El Poblado,Comuna 6
667315904824832128,Espaciosa casa Poblado/Jacuzzi/AC/Permite invitado,1225124.0,"Alojamiento entero en Medellín, Colombia",-75.5548946,6.2038929,88.0,4.99,2019-04,True,167.0,False,5.0,2019.0,MEDELLÍN,El Poblado,Comuna 6
1037010496732001792,"1401, Luxury Penthouse In El Poblado",1174656.0,"Vivienda rentada entero en Medellín, Colombia",-75.56955816,6.187508442,0.0,,2020-01,True,146.0,False,5.0,2020.0,MEDELLÍN,El Poblado,Comuna 6
51311503,Casa adosada remodelada con sala de juegos en una excelente ubicación,1516066.0,"Alojamiento entero en Medellín, Colombia",-75.55499268,6.204086781,63.0,4.52,2018-11,True,273.0,True,6.0,2018.0,MEDELLÍN,El Poblado,Comuna 6
729937459261034240,Acogedora villa para compartir con amigos,1488357.0,"Villa entero en Medellín, Colombia",-75.59725,6.24598,36.0,4.81,2019-05,True,50.0,True,8.0,2019.0,MEDELLÍN,Laureles Estadio,Comuna 10
735652452981134208,"11 min- >Lleras: Amplia, finca privada + camas Luxe",1402856.0,"Villa entero en Medellín, Colombia",-75.55615,6.1857,47.0,4.96,2013-11,True,72.0,True,6.0,2013.0,MEDELLÍN,El Poblado,Comuna 6
894911567999119104,"Apto de Lujo Laureles 3 Hab,  3 baños, Cocina",1428000.0,"Vivienda rentada entero en Medellín, Colombia",-75.60437,6.24006,2.0,,2023-04,True,2.0,True,3.0,2023.0,MEDELLÍN,Laureles Estadio,Comuna 10
942072502904546432,Amazing View Villa in Poblado | Medellín | 10+,1391100.0,"Villa entero en Medellín, Colombia",-75.53824085,6.179017215,3.0,5.0,2013-06,True,38.0,True,5.0,2013.0,MEDELLÍN,Corregimiento San Sebastián de Palmitas,
39985984,Penthouse 901 (Desayuno/Limpieza diario incluida),2335245.0,"Apartamento con servicios incluidos entero en Medellín, Colombia",-75.56612,6.20969,42.0,4.57,2019-10,True,569.0,True,4.0,2019.0,MEDELLÍN,El Poblado,Comuna 6
1030336099875185664,Villa de 5500 pies cuadrados en la ciudad.,1464607.0,"Alojamiento entero en Medellín, Colombia",-75.59728705,6.245802772,1.0,,2015-12,True,,True,4.0,2015.0,MEDELLÍN,Laureles Estadio,Comuna 10
958114299157151360,BORA BORA 5 camas/6 baños/jacuzzi y azotea /Provenza,1474899.0,"Vivienda rentada entero en Medellín, Colombia",-75.56516701,6.207891517,22.0,4.77,2019-03,True,697.0,False,5.0,2019.0,MEDELLÍN,El Poblado,Comuna 6
20151327,4br Luxury Apt Parque Lleras con balcón,1183561.0,"Vivienda rentada entero en Medellín, Colombia",-75.569,6.20986,106.0,4.88,2017-04,True,353.0,True,4.0,2017.0,MEDELLÍN,El Poblado,Comuna 6
41063698,Imperial 401 (Desayuno/Limpieza diario incluida),1662125.0,"Habitación en hotel boutique en Medellín, Colombia",-75.56612,6.20969,36.0,4.58,2019-10,True,569.0,True,3.0,2019.0,MEDELLÍN,El Poblado,Comuna 6
26951282,Energy 1003 Luxury Sky loft,1465755.0,"Vivienda rentada entero en Medellín, Colombia",-75.55856,6.21039,132.0,4.84,2014-09,True,6452.0,False,2.0,2014.0,MEDELLÍN,El Poblado,Comuna 6
33473093,"La casa súper VIP en El Poblado, Medellín",1623497.0,"Villa entero en Medellín, Colombia",-75.55519,6.20567,91.0,4.97,2012-11,True,379.0,False,6.0,2012.0,MEDELLÍN,El Poblado,Comuna 6
585282590213818496,Ático de concepto abierto Loft / Nido Sky / 17,1167357.0,"Loft entero en Medellín, Colombia",-75.57216,6.2111,67.0,4.96,2010-09,True,1401.0,True,2.0,2010.0,MEDELLÍN,El Poblado,Comuna 6
47117734,Provenza  RoofTop & Private Jacuzzi  3BR Apartment,1154704.0,"Apartamento con servicios incluidos entero en Medellín, Colombia",-75.56575012,6.209162235,131.0,4.89,2020-12,True,397.0,True,3.0,2020.0,MEDELLÍN,El Poblado,Comuna 6
971612818329281536,Primavera Palace Sauzzi Jacuzzi Poker,1339640.0,"Vivienda rentada entero en Medellín, Colombia",-75.56673188,6.208492666,4.0,5.0,2018-05,True,74.0,True,5.0,2018.0,MEDELLÍN,El Poblado,Comuna 6
874490361399436928,Espacioso 5BRw / AC + Jacuzzi Poblado,2544695.0,"Vivienda rentada entero en Medellín, Colombia",-75.5734481,6.206735,28.0,4.89,2015-09,True,2843.0,True,5.0,2015.0,MEDELLÍN,El Poblado,Comuna 6
917306372776641536,L3  Laureles House con  azotea  y 2 jacuzzis,1082107.0,"Alojamiento entero en Medellín, Colombia",-75.5990438,6.24951161,6.0,5.0,2015-12,True,457.0,True,9.0,2015.0,MEDELLÍN,Laureles Estadio,Comuna 10
876891613638949120,Apartamento de Lujo en Laureles 2 habs,1311000.0,"Vivienda rentada entero en Medellín, Colombia",-75.6041466,6.2392377,0.0,,2023-04,True,2.0,True,2.0,2023.0,MEDELLÍN,Laureles Estadio,Comuna 10
46250557,Villa patrimonial en el corazón de Medellín,1285714.0,"Villa entero en Medellín, Colombia",-75.56144,6.25856,12.0,4.92,2020-11,True,58.0,True,5.0,2020.0,MEDELLÍN,La Candelaria,Comuna 12
603944302411293568,Casa Privada 11 Minutes Poblado InsideHeatedPool,1177623.0,"Villa entero en Medellín, Colombia",-75.59087,6.23555,40.0,4.75,2019-02,True,212.0,True,6.0,2019.0,MEDELLÍN,Belén,Comuna 16
21433293,Ático 402 @ Lleras Park ...  (4 dormitorios),1375543.0,"Condo entero en Medellín, Colombia",-75.56902,6.20968,149.0,4.89,2012-12,True,725.0,True,4.0,2012.0,MEDELLÍN,El Poblado,Comuna 6
47474338,¡EL MEJOR ático en Provenza con 2 dormitorios y jacuzzi!,1256514.0,"Vivienda rentada entero en Medellín, Colombia",-75.56475,6.20778,104.0,4.77,2017-05,True,2664.0,False,2.0,2017.0,MEDELLÍN,El Poblado,Comuna 6
18910612,"Acogedor cielo de lujo cerca de todo, pero tranquilo",1658568.0,"Vivienda rentada entero en Medellín, Colombia",-75.56433,6.21635,17.0,5.0,2011-10,True,17.0,False,2.0,2011.0,MEDELLÍN,El Poblado,Comuna 6
749805888367286528,Los lofts de lujo Aragón El Poblado (Suite 401),1413702.0,"Apartamento con servicios incluidos entero en Medellín, Colombia",-75.57268,6.21296,7.0,5.0,2012-11,True,379.0,False,3.0,2012.0,MEDELLÍN,El Poblado,Comuna 6
9402646,THE PENTHOUSE @ LLeras Park (Jacuzzi + Mesa de billar),1683467.0,"Vivienda rentada entero en Medellín, Colombia",-75.56862,6.2099,254.0,4.79,2012-12,True,725.0,True,4.0,2012.0,MEDELLÍN,El Poblado,Comuna 6
741286573353139456,¡Apto para huéspedes de Provenza Jewel!,1085155.0,"Vivienda rentada entero en Medellín, Colombia",-75.56442,6.20911,41.0,4.93,2018-05,True,74.0,False,4.0,2018.0,MEDELLÍN,El Poblado,Comuna 6
40618899,Piscina privada Mejor mes de tu vida 19Min Poblado,1438125.0,"Villa entero en Medellín, Colombia",-75.58633,6.23403,30.0,4.73,2019-02,True,212.0,False,6.0,2019.0,MEDELLÍN,Belén,Comuna 16
1052664732073271168,Casa finca Apolo,1600000.0,"Alojamiento entero en Medellín, Colombia",-75.6084844,6.2894875,0.0,,2018-12,True,,True,5.0,2018.0,MEDELLÍN,,
971788130926633984,702Beautiful&spacious ElPoblado,850000.0,"Vivienda rentada entero en Medellín, Colombia",-75.5690594,6.186539148,1.0,,2023-06,True,6.0,False,4.0,2023.0,MEDELLÍN,El Poblado,Comuna 6
749803642737062144,The Aragon El Poblado Luxury Lofts (Suite 301),1343045.0,"Apartamento con servicios incluidos entero en Medellín, Colombia",-75.57428,6.21269,4.0,5.0,2012-11,True,379.0,False,3.0,2012.0,MEDELLÍN,El Poblado,Comuna 6
18234791,Ático de lujo de 3 pisos con balcón,1183561.0,"Vivienda rentada entero en Medellín, Colombia",-75.5684,6.20908,82.0,4.88,2017-04,True,353.0,True,3.0,2017.0,MEDELLÍN,El Poblado,Comuna 6
30110483,¡Alojamiento de varios niveles con sala de juegos y bares!,1500233.0,"Alojamiento entero en Medellín, Colombia",-75.55480957,6.204089165,102.0,4.56,2018-11,True,273.0,True,5.0,2018.0,MEDELLÍN,El Poblado,Comuna 6
894864776458919424,"Apto de Lujo Laureles 3 Hab, 3 baños, Jacuzzi",1400000.0,"Vivienda rentada entero en Medellín, Colombia",-75.60495,6.24014,0.0,,2023-04,True,2.0,True,3.0,2023.0,MEDELLÍN,Laureles Estadio,Comuna 10
765231388157988096,Imperio Luxury -Jacuzzi-Parking,1428571.0,"Alojamiento entero en Medellín, Colombia",-75.5962733,6.2610439,3.0,5.0,2021-02,True,17.0,True,4.0,2021.0,MEDELLÍN,Laureles Estadio,Comuna 10
1016077088076299264,Casa villa aloha,1200000.0,"Alojamiento entero en Medellín, Colombia",-75.59524464,6.245302083,3.0,5.0,2019-06,True,3.0,False,7.0,2019.0,MEDELLÍN,Laureles Estadio,Comuna 10
32282336,Elegante escapada en Provenza,1352070.0,"Apartamento con servicios incluidos entero en Medellín, Colombia",-75.564517,6.205759,119.0,4.94,2019-02,True,500.0,True,4.0,2019.0,MEDELLÍN,El Poblado,Comuna 6
971806370117624960,"801 jacuzzi, la mejor experiencia",850000.0,"Vivienda rentada entero en Medellín, Colombia",-75.5690594,6.186645811,0.0,,2023-06,True,6.0,False,3.0,2023.0,MEDELLÍN,El Poblado,Comuna 6
50150708,NUEVO Increíble Hab Hotel Desayuno -Vistas-Jacuzzi,452001.0,"Vivienda rentada entero en Medellín, Colombia",-75.56939,6.19866,79.0,4.82,2021-04,True,305.0,False,1.0,2021.0,MEDELLÍN,El Poblado,Comuna 6
16914965,3BR Luxury. La experiencia Nelson (ver reseñas),1484399.0,"Alojamiento entero en Medellín, Colombia",-75.57223,6.21395,10.0,4.6,2015-01,True,170.0,False,3.0,2015.0,MEDELLÍN,El Poblado,Comuna 6
881762006921970560,"Makondo 6BD/6,5 baños /aire acondicionado con aire acondicionado en Provenza",1247845.0,"Alojamiento entero en Medellín, Colombia",-75.56549947,6.206813668,22.0,4.86,2019-03,True,697.0,False,6.0,2019.0,MEDELLÍN,El Poblado,Comuna 6
40419028,Lofts 4BR espectaculares e industriales en Provenza,1272110.0,"Loft entero en Medellín, Colombia",-75.56673431,6.207600117,43.0,4.79,2015-06,True,798.0,False,4.0,2015.0,MEDELLÍN,El Poblado,Comuna 6
979300769004040960,Casa Bolívar en Laureles 10 BR,791679.0,"Alojamiento entero en Medellín, Colombia",-75.6035089,6.2473426,2.0,,2023-01,True,153.0,False,10.0,2023.0,MEDELLÍN,La América,Comuna 15
1035509852326301568,Ambiente de fiesta: jaccuzi de Art District House y mucho más,1203353.0,"Vivienda rentada entero en Medellín, Colombia",-75.55894989,6.261258615,0.0,,2023-11,True,,False,4.0,2023.0,MEDELLÍN,La Candelaria,Comuna 12
904722016435472640,Casa Prado Downtown with Terrace Bar and Jacuzzi,1442005.0,"Alojamiento entero en Medellín, Colombia",-75.55596,6.25867,2.0,,2023-01,True,153.0,False,8.0,2023.0,MEDELLÍN,Villa Hermosa,Comuna 13
40732289,Dos lofts de lujo de 3 dormitorios justo en el corazón de Provenza,1171686.0,"Loft entero en Medellín, Colombia",-75.56673431,6.207600117,26.0,4.88,2015-06,True,798.0,False,3.0,2015.0,MEDELLÍN,El Poblado,Comuna 6
967969870070539264,202 City View Terrace El Poblado,850000.0,"Vivienda rentada entero en Medellín, Colombia",-75.5690594,6.1870298,0.0,,2023-06,True,6.0,False,3.0,2023.0,MEDELLÍN,El Poblado,Comuna 6
636868224568095360,¡CASA DEL RELOJ-CASCADA MÁS APARTAMENTO DE 4 DORMITORIOS!,2014270.0,"Apartamento con servicios incluidos entero en Medellín, Colombia",-75.56599,6.20725,1.0,,2015-04,True,530.0,True,4.0,2015.0,MEDELLÍN,El Poblado,Comuna 6
49234664,Impresionante suite de 3 dormitorios con jacuzzi justo en el parque Lleras.,1545477.0,"Apartamento con servicios incluidos entero en Medellín, Colombia",-75.56692,6.20752,57.0,4.82,2020-02,True,624.0,True,3.0,2020.0,MEDELLÍN,El Poblado,Comuna 6
49759589,Casa entera El Poblado Plan Tranquilo,1187519.0,"Alojamiento entero en Medellín, Colombia",-75.56086,6.18737,0.0,,2015-04,True,9.0,False,3.0,2015.0,MEDELLÍN,El Poblado,Comuna 6
628477717076704640,Dúplex in Parque Lleras- Best Location in Medellín,580000.0,"Vivienda rentada entero en Medellín, Colombia",-75.56871,6.210662,62.0,4.74,2022-05,True,153.0,False,4.0,2022.0,MEDELLÍN,El Poblado,Comuna 6
981802608843980160,luXuRy HiDden,1187519.0,"Vivienda rentada entero en Medellín, Colombia",-75.56741852,6.208185686,1.0,,2018-12,True,397.0,False,1.0,2018.0,MEDELLÍN,El Poblado,Comuna 6
983572501805090560,Casa excelente ubicación,1200000.0,"Alojamiento entero en Medellín, Colombia",-75.56592295,6.209525296,0.0,,2019-10,True,,True,6.0,2019.0,MEDELLÍN,El Poblado,Comuna 6
1029073493620195584,LuXUrY CrYptic,1187519.0,"Vivienda rentada entero en Medellín, Colombia",-75.56740981,6.208276346,0.0,,2018-12,True,397.0,False,1.0,2018.0,MEDELLÍN,El Poblado,Comuna 6
710957262307028864,Hermosa casa campestre - sopetran,1150000.0,"Alojamiento entero en Medellín, Colombia",-75.58801,6.24663,0.0,,2022-08,True,4.0,False,4.0,2022.0,MEDELLÍN,Laureles Estadio,Comuna 10
1029087476817311360,luXURy iN sECREt,1187519.0,"Vivienda rentada entero en Medellín, Colombia",-75.56655919,6.208032313,1.0,,2018-12,True,397.0,False,1.0,2018.0,MEDELLÍN,El Poblado,Comuna 6
689219278155831296,3 bedroom -new loft 5 blocks from parque lleras,1278958.0,"Vivienda rentada entero en Medellín, Colombia",-75.57214,6.21378,0.0,,2021-01,True,42.0,False,3.0,2021.0,MEDELLÍN,El Poblado,Comuna 6
747274270745856512,"Discoteca, Paris Luxury Suites",1159019.0,"Apartamento con servicios incluidos entero en Medellín, Colombia",-75.56874,6.20692,0.0,,2022-09,True,37.0,True,1.0,2022.0,MEDELLÍN,El Poblado,Comuna 6
1017368467527296000,Apartamento en el Poblado Lleras,1400000.0,"Vivienda rentada entero en Medellín, Colombia",-75.5668943,6.2093428,0.0,,2020-02,True,13.0,False,3.0,2020.0,MEDELLÍN,El Poblado,Comuna 6
638437542138265984,Casa completa para grupos hasta 12 personas,1534948.0,"Alojamiento entero en Medellín, Colombia",-75.571953,6.211339,1.0,,2022-05,True,6.0,True,4.0,2022.0,MEDELLÍN,El Poblado,Comuna 6
932732260910956544,201 Gran terraza y hermosa vista,850000.0,"Vivienda rentada entero en Medellín, Colombia",-75.57024594,6.186102456,0.0,,2023-06,True,6.0,False,4.0,2023.0,MEDELLÍN,El Poblado,Comuna 6
1016740150279543168,Creo: toda la suite. Casa en Manila - Poblado,1062857.0,"Alojamiento entero en Medellín, Colombia",-75.57217609,6.213992243,0.0,,2023-09,True,35.0,True,4.0,2023.0,MEDELLÍN,El Poblado,Comuna 6
53709013,2 áticos cerca del parque poblado y el parque lleras,1124185.0,"Vivienda rentada entero en Medellín, Colombia",-75.57161,6.21237,5.0,4.0,2020-09,True,223.0,False,6.0,2020.0,MEDELLÍN,El Poblado,Comuna 6
15844557,"Estupendo apartamento Poblado, Manila",1522837.0,"Vivienda rentada entero en Medellín, Colombia",-75.57298,6.21428,14.0,4.57,2013-08,True,1477.0,False,6.0,2013.0,MEDELLÍN,El Poblado,Comuna 6
1005148026633169664,Apartamento con desayuno en La Seventy Piso2,1501714.0,"Vivienda rentada entero en Medellín, Colombia",-75.58716588,6.248217426,0.0,,2018-08,True,1695.0,True,4.0,2018.0,MEDELLÍN,Laureles Estadio,Comuna 10
17775030,Guest Friendy 2BD / Pvt Jaccuzi by lleras Park,1359987.0,"Vivienda rentada entero en Medellín, Colombia",-75.56872,6.21124,13.0,4.85,2017-01,True,79.0,True,3.0,2017.0,MEDELLÍN,El Poblado,Comuna 6
689269169008589312,The Lynx 3 bedroom loft 5 blocks to parque lleras.,1387616.0,"Apartamento con servicios incluidos entero en Medellín, Colombia",-75.57439,6.21423,1.0,,2021-01,True,42.0,False,3.0,2021.0,MEDELLÍN,El Poblado,Comuna 6
958028558633576704,LLeras Park Room con acceso a la azotea y a la piscina,1567525.0,"Vivienda rentada entero en Medellín, Colombia",-75.5699178,6.2103367,0.0,,2023-08,True,,True,3.0,2023.0,MEDELLÍN,El Poblado,Comuna 6
17776981,h.,1310784.0,"Vivienda rentada entero en Medellín, Colombia",-75.56906,6.21105,1.0,,2017-01,True,79.0,True,3.0,2017.0,MEDELLÍN,El Poblado,Comuna 6
47096122,.,1108351.0,"Vivienda rentada entero en Medellín, Colombia",-75.56988525,6.210271835,0.0,,2019-10,True,7.0,True,4.0,2019.0,MEDELLÍN,El Poblado,Comuna 6
957940625663140992,Barrio artístico en el barrio completo con acceso gratuito al jacuzzi,1377522.0,"Vivienda rentada entero en Medellín, Colombia",-75.5699178,6.2103367,0.0,,2023-08,True,,True,5.0,2023.0,MEDELLÍN,El Poblado,Comuna 6
786896296124897280,4,1598045.0,"Vivienda rentada entero en Medellín, Colombia",-75.5699,6.21024,1.0,,2015-07,True,3.0,True,4.0,2015.0,MEDELLÍN,El Poblado,Comuna 6
787760257120455808,Casa para familias y grupos: El Poblado a 400 mbps,1564500.0,"Alojamiento entero en Medellín, Colombia",-75.57141,6.21495,0.0,,2015-11,True,288.0,True,6.0,2015.0,MEDELLÍN,El Poblado,Comuna 6
15308326,"Increíble apartamento en Poblado, Manila",1136343.0,"Vivienda rentada entero en Medellín, Colombia",-75.57415,6.21363,32.0,4.69,2013-08,True,1477.0,False,5.0,2013.0,MEDELLÍN,El Poblado,Comuna 6
22793191,?????????,1655956.0,"Vivienda rentada entero en Medellín, Colombia",-75.56732,6.20911,7.0,4.43,2017-01,True,79.0,True,5.0,2017.0,MEDELLÍN,El Poblado,Comuna 6
26057380,???????,1396760.0,"Vivienda rentada entero en Medellín, Colombia",-75.56922,6.21094,4.0,3.75,2018-06,True,17.0,False,4.0,2018.0,MEDELLÍN,El Poblado,Comuna 6
940539505963204480,"Increíble ático con jacuzzi, terraza y barbacoa",1404891.0,"Vivienda rentada entero en Medellín, Colombia",-75.5652634,6.2081865,13.0,4.69,2023-06,True,137.0,True,2.0,2023.0,MEDELLÍN,El Poblado,Comuna 6
677365446986068736,Increíble villa con impresionantes vistas y jacuzzi,1639924.0,"Villa entero en Medellín, Colombia",-75.54669,6.19978,14.0,5.0,2016-05,True,108.0,False,4.0,2016.0,MEDELLÍN,Corregimiento San Sebastián de Palmitas,
1039235102787447168,Luxury Apto 2BD en Tropical Villa | Jacuzzi + AC,1583359.0,"Alojamiento entero en Medellín, Colombia",-75.5690868,6.206745054,1.0,,2018-10,True,1021.0,True,2.0,2018.0,MEDELLÍN,El Poblado,Comuna 6
47974310,"Vida energética panorámica, única e increíble con vistas",1530198.0,"Vivienda rentada entero en Medellín, Colombia",-75.55906,6.21245,16.0,4.94,2016-06,True,633.0,True,2.0,2016.0,MEDELLÍN,El Poblado,Comuna 6
1056062038909306240,New Provenza Paradise House 7BR y patio con jacuzzi,1877777.0,"Alojamiento entero en Medellín, Colombia",-75.5652148,6.2070178,3.0,5.0,2022-11,True,13.0,True,7.0,2022.0,MEDELLÍN,El Poblado,Comuna 6
813868962629132928,"2 dormitorios, terraza, piscina, aire acondicionado, 300 mb, estela 1415",2374484.0,"Vivienda rentada entero en Medellín, Colombia",-75.56465051,6.211022193,28.0,4.71,2022-06,True,859.0,True,2.0,2022.0,MEDELLÍN,El Poblado,Comuna 6
31834561,¡Casa pent de 3 plantas con terraza privada!,1321551.0,"Condo entero en Medellín, Colombia",-75.55299,6.20408,20.0,4.95,2016-03,True,486.0,True,2.0,2016.0,MEDELLÍN,El Poblado,Comuna 6
586389643334404096,Simplicidad y estilo + Billar,1713831.0,"Vivienda rentada entero en Medellín, Colombia",-75.56152,6.20175,98.0,4.96,2021-06,True,1167.0,False,5.0,2021.0,MEDELLÍN,El Poblado,Comuna 6
977609139363855232,King Of Airbnb poblado-Provenza-parque lleras,2018783.0,"Vivienda rentada entero en Medellín, Colombia",-75.56674337,6.209945869,11.0,5.0,2018-12,True,397.0,True,3.0,2018.0,MEDELLÍN,El Poblado,Comuna 6
717460772515622784,Villa Poblado con piscina climatizada y jacuzzi,2766920.0,"Alojamiento entero en Medellín, Colombia",-75.56445569,6.209343767,30.0,4.93,2011-11,True,878.0,False,6.0,2011.0,MEDELLÍN,El Poblado,Comuna 6
52425089,Penthouse  COMUNA13 con jacuzzi privado y barbacoa.,1549435.0,"Apartamento con servicios incluidos entero en Medellín, Colombia",-75.56397,6.20849,119.0,4.83,2019-01,True,2756.0,True,3.0,2019.0,MEDELLÍN,El Poblado,Comuna 6
1042706176516198016,Lux Penthouse in Medellín,1628596.0,"Vivienda rentada entero en Medellín, Colombia",-75.56128111,6.217929877,1.0,,2017-01,True,19.0,True,5.0,2017.0,MEDELLÍN,Buenos Aires,Comuna 9
46704610,Diseñador Provenza Apartamento,1330694.0,"Apartamento con servicios incluidos entero en Medellín, Colombia",-75.564517,6.205759,152.0,4.93,2019-02,True,500.0,False,4.0,2019.0,MEDELLÍN,El Poblado,Comuna 6
53987966,Casa Madera Parque Lleras 7BR with private Jacuzzi,2862713.0,"Villa entero en Medellín, Colombia",-75.568684,6.20794039,83.0,4.84,2015-10,True,7204.0,True,7.0,2015.0,MEDELLÍN,El Poblado,Comuna 6
1055696078438892032,57 Hillside mansion Pool Provenza Lleras 5 mins,2347884.0,"Casa adosada entero en Medellín, Colombia",-75.5614896,6.2158875,1.0,,2018-05,True,168.0,True,4.0,2018.0,MEDELLÍN,Buenos Aires,Comuna 9
725230005152062720,B3 Penthouse @ poblado/provenza con jacuzzi,1089984.0,"Vivienda rentada entero en Medellín, Colombia",-75.5687881,6.2015313,67.0,4.79,2015-12,True,457.0,True,4.0,2015.0,MEDELLÍN,El Poblado,Comuna 6
1039238468538890240,Luxury Apto 2BD en Tropical Villa | Jacuzzi + AC,1583359.0,"Vivienda rentada entero en Medellín, Colombia",-75.56764424,6.206992859,1.0,,2018-10,True,1021.0,True,2.0,2018.0,MEDELLÍN,El Poblado,Comuna 6
817922880196933248,"Mansión VIP a 6 minutos del parque Lleras, jacuzzi+seguridad",1950936.0,"Villa entero en Medellín, Colombia",-75.55685749,6.19753199,21.0,4.9,2013-11,True,92.0,False,7.0,2013.0,MEDELLÍN,El Poblado,Comuna 6
1060094141392144000,AQCUA APT 7BD/7.5 Bath - Heated Pool - El Poblado,2794628.0,"Vivienda rentada entero en Medellín, Colombia",-75.5682296,6.2106902,0.0,,2019-03,True,697.0,False,7.0,2019.0,MEDELLÍN,El Poblado,Comuna 6
837990475093521280,Exclusiva Villa Lujo con Piscina,2090430.0,"Alojamiento entero en Medellín, Colombia",-75.56749,6.18452,32.0,4.66,2015-10,True,7204.0,False,4.0,2015.0,MEDELLÍN,El Poblado,Comuna 6
978829341971900416,Apartamento atractivo y atractivo Provenza nuevo,2018783.0,"Vivienda rentada entero en Medellín, Colombia",-75.56694184,6.209960801,3.0,4.67,2020-01,True,364.0,False,3.0,2020.0,MEDELLÍN,El Poblado,Comuna 6
1039718984579346176,Mansión DiscoParty a 20 minutos de Provenza y Llerras,1560000.0,"Alojamiento entero en Medellín, Colombia",-75.56732982,6.208120139,2.0,,2021-03,True,6.0,True,6.0,2021.0,MEDELLÍN,El Poblado,Comuna 6
11262138,"Exclusivo Penthouse en El Poblado, Medellin",1950936.0,"Condo entero en Medellín, Colombia",-75.57159,6.19118,33.0,5.0,2015-03,True,70.0,True,1.0,2015.0,MEDELLÍN,El Poblado,Comuna 6
910329282040781056,alojamiento privado en el poblado,2244965.0,"Alojamiento entero en Medellín, Colombia",-75.56151,6.18582,5.0,5.0,2023-06,True,5.0,False,7.0,2023.0,MEDELLÍN,El Poblado,Comuna 6
746209310101428608,(503) Departamento de lujo de cinco habitaciones. Provenza Mde.,1591276.0,"Apartamento con servicios incluidos entero en Medellín, Colombia",-75.5660216,6.2104221,24.0,4.79,2022-10,True,173.0,False,5.0,2022.0,MEDELLÍN,El Poblado,Comuna 6
974131690445164544,Lujosa Villa en El Poblado con piscina privada!,2536185.0,"Villa entero en Medellín, Colombia",-75.5811623,6.1929564,11.0,5.0,2022-01,True,131.0,False,6.0,2022.0,MEDELLÍN,El Poblado,Comuna 6
574821496525695680,"El MYNT ReduX (jacuzzi, terraza, ático)",1957427.0,"Vivienda rentada entero en Medellín, Colombia",-75.57016,6.2129,45.0,4.69,2012-12,True,725.0,True,5.0,2012.0,MEDELLÍN,El Poblado,Comuna 6
914636647387523968,WOW 360 View 4BR Medellin Poblado Mejor ubicación,1671429.0,"Vivienda rentada entero en Medellín, Colombia",-75.55559416,6.194795201,8.0,4.75,2015-05,True,9.0,False,4.0,2015.0,MEDELLÍN,El Poblado,Comuna 6
41644949,4BR Luxury Dream House en Poblado 's Heart,1827830.0,"Vivienda rentada entero en Medellín, Colombia",-75.56706,6.21035,63.0,4.63,2018-02,True,1256.0,False,4.0,2018.0,MEDELLÍN,El Poblado,Comuna 6
761818703975281280,Casa de 6 dormitorios con aire acondicionado y piscina privada dentro de Provenza.,2620419.0,"Villa entero en Medellín, Colombia",-75.5657,6.20673,34.0,4.68,2015-10,True,7204.0,False,6.0,2015.0,MEDELLÍN,El Poblado,Comuna 6
970327378555737344,Poblado Mansion 13Bedroom Pool A/C 5 Min to Lleras,3395751.0,"Alojamiento entero en Medellín, Colombia",-75.57107829,6.193515558,3.0,5.0,2016-09,True,19.0,True,13.0,2016.0,MEDELLÍN,El Poblado,Comuna 6
961406820883780864,¡Literalmente a 1 cuadra del parque Lleras!,1944721.0,"Apartamento con servicios incluidos entero en Medellín, Colombia",-75.5685831,6.210255891,23.0,4.91,2015-09,True,1441.0,True,6.0,2015.0,MEDELLÍN,El Poblado,Comuna 6
939688340936284928,Piscina climatizada Casa BALI 6Bed/7Bath Aire acondicionado en Provenza,1590999.0,"Alojamiento entero en Medellín, Colombia",-75.56486918,6.208333058,28.0,4.61,2019-03,True,697.0,False,6.0,2019.0,MEDELLÍN,El Poblado,Comuna 6
1019473120772882432,Apartamento de lujo 1703,1880239.0,"Vivienda rentada entero en Medellín, Colombia",-75.5629538,6.2013839,0.0,,2018-11,True,,True,2.0,2018.0,MEDELLÍN,El Poblado,Comuna 6
950127245894573824,Villa en el Poblado con Jacuzzi,1457143.0,"Alojamiento entero en Medellín, Colombia",-75.55645,6.20367,2.0,,2020-03,True,62.0,False,5.0,2020.0,MEDELLÍN,El Poblado,Comuna 6
1051008234080868352,El Poblados 5 Bedroom Lux Duplex Vacation Rental,1912460.0,"Vivienda rentada entero en Medellín, Colombia",-75.56435265,6.195285973,0.0,,2021-09,True,151.0,False,5.0,2021.0,MEDELLÍN,El Poblado,Comuna 6
874701959871955840,"Piscina privada, casa de 10 dormitorios, en el Poblado, aire acondicionado en las habitaciones.",2064027.0,"Alojamiento entero en Medellín, Colombia",-75.58165,6.19351,32.0,5.0,2020-11,True,251.0,True,10.0,2020.0,MEDELLÍN,El Poblado,Comuna 6
889359741438350592,NeW LuXurY PaLace DreaM - MaNila,1786939.0,"Vivienda rentada entero en Medellín, Colombia",-75.56979,6.21279,2.0,,2018-12,True,397.0,False,5.0,2018.0,MEDELLÍN,El Poblado,Comuna 6
979603937159134976,Dúplex de alta gama,1690790.0,"Vivienda rentada entero en Medellín, Colombia",-75.56460168,6.208630101,15.0,4.67,2019-01,True,2756.0,False,7.0,2019.0,MEDELLÍN,El Poblado,Comuna 6
727040206353006336,Villa AG6 Daily Clean & Breaky+ Massage en Poblado,1803157.0,"Alojamiento entero en Medellín, Colombia",-75.57884,6.19684,16.0,4.69,2018-08,True,1695.0,False,6.0,2018.0,MEDELLÍN,El Poblado,Comuna 6
26767286,Descanso y tranquilidad en El Poblado,1701429.0,"Villa entero en Medellín, Colombia",-75.56801,6.21693,184.0,4.82,2017-02,True,531.0,True,8.0,2017.0,MEDELLÍN,El Poblado,Comuna 6
52424846,ÁTICO PAZ 402 TRIPLEX CON JACUZZI Y BARBACOA,1655045.0,"Apartamento con servicios incluidos entero en Medellín, Colombia",-75.56592,6.20863,109.0,4.85,2019-01,True,2756.0,True,4.0,2019.0,MEDELLÍN,El Poblado,Comuna 6
