id,title,price,description,long,latitude,review_airbnb,calification_rate,created_at,verified,host_review,created_at_1,cameras_on_site,rooms
593665933614650758,habitación el Altillo,42500,"Habitación en MEDELLÍN, Colombia",-75.600784,6.228388,18,4.78,,,,02/22,False,1
942689761121551563,Hospedaje habitacion sencilla apto en Medellin,39199,"Habitación en MEDELLÍN, Colombia",-75.60948789999999,6.2857093,9,5.0,,,,08/23,False,1
647883068514827916,Habitación privada bañocompartido Hostel Laureles8,40300,"Habitación en MEDELLÍN, Colombia",-75.59625,6.23677,31,4.58,,,,02/19,False,1
1015450681323342487,Habitación envigado muy Cómoda,41143,"Habitación en Envigado, Colombia",-75.58433,6.15914,4,2.75,,,,09/23,False,1
1030531185601253466,Habitación en laureles estadio 1,57429,"Habitación en MEDELLÍN, Colombia",-75.588054433465,6.245700046845322,0,,,,,04/23,False,1
1026970990435129773,Habitación 3: cerca al Poblado (baño compartido),43542,"Habitación en MEDELLÍN, Colombia",-75.59195578804704,6.196224440101012,2,,,,,12/23,False,1
989680579421065719,Agradable habitación 401 cerca al metro,40000,"Habitación en MEDELLÍN, Colombia",-75.6003301147134,6.261367274192756,13,5.0,,,,02/23,False,1
1033512441278518015,Habitación laureles estadio 6,45000,"Habitación en MEDELLÍN, Colombia",-75.58895088239998,6.244920454067871,1,,,,,04/23,False,1
22955927,el aparta-estudio de robledo,39000,"Loft entero en MEDELLÍN, Colombia",-75.59193,6.28494,60,4.87,01/2018,,63,02/18,False,1
946501219503918280,Habitación privada 04 CasaHostal,46101,"Habitación privada en alojamiento en MEDELLÍN, Colombia",-75.58322078374643,6.220359468916882,26,4.69,07/2023,True,69,08/23,False,1
1032753365978142305,Casa MoraZ Rojo La Candelaria,48000,"Habitación en MEDELLÍN, Colombia",-75.56243435767213,6.242282725990368,6,5.0,,,,02/23,False,1
989375040434561564,Habitación para mujer sola.,40956,"Habitación en MEDELLÍN, Colombia",-75.5928268900948,6.223947267037479,2,,,,,10/23,False,1
37367557,Casa Finca en la Ciudad Hab. Privada - MEDELLÍN,39000,"Habitación en Envigado, Colombia",-75.57716,6.17314,82,4.84,,,,02/18,False,1
971180340400374337,,,,,,,,,,,,,
833377996973072860,Habitación privada #2,43542,"Habitación en MEDELLÍN, Colombia",-75.5603,6.25713,31,4.81,,,,02/22,False,1
1037074197223363131,Estadio la 70 Macarena San Juan,65768,"Habitación en MEDELLÍN, Colombia",-75.5846305,6.2467631,3,4.67,,,,02/20,False,1
620235342352237420,"Habitación #1 en Envigado, Antioquia.",50286,"Habitación en Envigado, Colombia",-75.579613,6.178042,13,4.85,,,,02/21,False,1
1053055849720099694,Priv kitchen room Exito Laureles,36000,"Habitación en MEDELLÍN, Colombia",-75.6024899120104,6.2513282352560875,1,,,,,12/23,False,1
21657022,Casa finca en la ciudad Habitación doble- MEDELLÍN,39857,"Habitación en Envigado, Colombia",-75.57634,6.17437,68,4.82,,,,02/18,False,1
863304504038199414,Habitación Relax Hippie Laureles,40000,"Habitación en MEDELLÍN, Colombia",-75.58859,6.2471,9,4.56,,,,04/23,True,1
982866864420848237,Habitación en Loma de los Bernal - fast Wi Fi,45000,"Habitación en MEDELLÍN, Colombia",-75.60762814095517,6.218131972202943,2,,,,,02/19,False,1
1034100130318853236,Casa MoraZ Gris La Candelaria,48000,"Habitación en MEDELLÍN, Colombia",-75.5624129,6.2424747,2,,,,,02/23,False,1
1037077768795388664,Laureles San Joaquin estadio,59900,"Habitación en MEDELLÍN, Colombia",-75.58376917811266,6.247230981244489,1,,,,,02/20,False,1
46800640,"Habitación #4 en Envigado, Antioquia.",50000,"Habitación en Envigado, Colombia",-75.57858,6.17835,25,4.76,,,,02/21,False,1
932000162393313979,Habitación privada 01 CasaHostal,46424,"Habitación en MEDELLÍN, Colombia",-75.5833,6.2226,17,4.65,,,,08/23,False,1
653502114216011390,Habitación 5 Belén cerca de Metroplús,37999,"Habitación en MEDELLÍN, Colombia",-75.60314726358625,6.22604413655363,12,4.58,,,,02/22,False,1
555308173448949984,"Habitación sencilla, económica cerca al Poblado",44357,"Habitación en MEDELLÍN, Colombia",-75.58255,6.20373,28,4.79,,,,02/22,False,1
860186001252364494,Habitación privada compartida piso 2,42537,"Habitación en Sabaneta, Colombia",-75.6093,6.1431,8,5.0,,,,02/20,False,1
844962769628793284,Habitación Privada - Casa Itagüí,39584,"Habitación en Itagüí, Colombia",-75.594915,6.1918976,14,4.93,,,,02/23,False,1
45116313,"Lavandería Gratis, Muy Limpio, Ubicación Perfecta",258000,"Habitación en Envigado., Colombia",-75.58814,6.17643,10,4.9,,,,02/20,False,1
1044768990382929157,Comodo Apartamento en Medellin,43542,"Vivienda rentada entero en MEDELLÍN, Colombia",-75.565149,6.302793,1,,06/2022,True,27,02/23,False,2
948381807199236510,Habitación cercana al Barrio Poblado y el Metro.,52857,"Habitación en MEDELLÍN, Colombia",-75.58341145940265,6.2148228661775775,3,4.33,,,,09/23,False,1
1022120719042206711,Habitación agradable,32000,"Habitación en MEDELLÍN, Colombia",-75.57112606308633,6.300859691272632,1,,,,,02/20,False,1
939354104523620396,Alcoba cerca a lo que necesitas.,41094,"Habitación en MEDELLÍN, Colombia",-75.55767446441801,6.261177429679289,3,5.0,,,,08/23,True,1
1049937227401873100,Habitación con baño privado junto a Mayorca,39000,Habitación en Colombia,-75.60239,6.15315,0,,,,,02/17,False,1
17582947,Perfecta ubicación cerca a Metro y jardín Botánico,38286,"Habitación en MEDELLÍN, Colombia",-75.56496,6.26455,75,4.81,,,,02/16,False,1
892156079859572277,Habitación para 1 persona al frente de la UdeA,44800,"Habitación en MEDELLÍN, Colombia",-75.56966,6.26493,10,5.0,,,,06/23,False,1
963888266031760967,Hermosa habitación con excelente ubicación,45000,"Habitación en Envigado, Colombia",-75.57891096452528,6.1670431636554905,19,4.68,,,,10/23,False,1
983330959938707086,MoraZ Amarillo La Candelaria,48000,"Habitación en MEDELLÍN, Colombia",-75.56254164603273,6.242453369557985,25,4.68,,,,02/23,False,1
46775700,"Habitación #2 en Envigado, Antioquia.",50000,"Habitación en Envigado, Colombia",-75.579613,6.178042,18,4.78,,,,02/21,False,1
1036314420367319260,Estadio laureles,56900,"Habitación en MEDELLÍN, Colombia",-75.5846305,6.2467631,1,,,,,02/20,False,1
48300568,Habitación privada y acogedora Poblado Via Provenza la Florida,41286,"Habitación en MEDELLÍN, Colombia",-75.5634,6.20538,108,4.54,,,,02/19,False,1
13977594,Habitación Manila Poblado (2): oferta especial para el mes completo,59376,"Habitación en MEDELLÍN, Colombia",-75.57301,6.21705,43,4.88,,,,02/16,False,1
1029673689679781012,campestre San joaquin,38400,"Habitación en MEDELLÍN, Colombia",-75.58784872257374,6.243702382930965,0,,,,,02/22,True,1
951361412487581335,Alcoba #2 Individual,42250,"Habitación en MEDELLÍN, Colombia",-75.5576691,6.2611561,1,,,,,08/23,False,1
761786570938290898,Habitación compartida en hostal,39584,"Alojamiento entero en MEDELLÍN, Colombia",-75.56004897619628,6.25769652108978,3,4.67,11/2022,True,11,02/23,False,2
52075844,"Habitación privada, vecindario tranquilo y cerca del centro",43542,"Habitación en MEDELLÍN, Colombia",-75.55261,6.25587,6,5.0,,,,02/17,False,1
40836434,Habitación nivel 13 - cama doble,45000,"Habitación en MEDELLÍN, Colombia",-75.57174,6.25974,2,,,,,02/17,False,1
801625399341627894,Cómoda habitación privada,40286,"Habitación en Bello, Colombia",-75.56578,6.32447,13,4.85,,,,02/23,False,1
34476117,CASA COLONIAL ENVIGADO,39584,"Habitación en Envigado, Colombia",-75.58282,6.16304,24,4.79,,,,02/17,False,4
18078787,Centro hitórico y cerca al poblado,47501,"Habitación en MEDELLÍN, Colombia",-75.56207,6.25227,114,4.89,,,,02/17,False,1
952379963805221033,Bienvenido a MEDELLÍN - Piscina | Estacionamiento | Gimnasio | Sauna,39584,"Habitación en La Bahia, Colombia",-75.608164,6.143851,3,5.0,,,,09/23,False,1
817558839983113623,"Tranquila , familiar , central.Cuarto pequeño.",40000,"Habitación en MEDELLÍN, Colombia",-75.59978,6.24813,2,,,,,02/23,False,1
644931416223771288,Habitación 4 Belén cerca de Metroplús,40736,"Habitación en MEDELLÍN, Colombia",-75.60357,6.22558,19,4.79,,,,02/22,False,1
884762804592811415,Habitación en MEDELLÍN,41685,"Habitación en MEDELLÍN, Colombia",-75.60675,6.25332,4,4.75,,,,02/23,False,1
742682977114112993,"Un lugar para conversar
Hotel boutique Marblado.",42000,"Habitación en MEDELLÍN, Colombia",-75.55976,6.25879,4,4.5,,,,02/23,False,4
1050166880185314523,Habitación con AC Exito Laureles,44000,"Habitación en MEDELLÍN, Colombia",-75.60078745455107,6.251234269726273,1,,,,,12/23,False,1
966822201738841166,Casa Colonial Habitación 5,43000,"Habitación en Envigado, Colombia",-75.58195006102324,6.160975229672216,0,,,,,02/17,False,1
1032602708334688518,MoraZ Verde La Candelaria,66000,"Habitación en MEDELLÍN, Colombia",-75.5624129,6.2424747,3,4.67,,,,02/23,False,1
822344299835752829,Piso compartido de habitación privada,42537,"Habitación en Sabaneta, Colombia",-75.61006008095094,6.1422059551213755,7,4.86,,,,02/20,False,1
1036526174051351981,Hab. 7 Belen Sector Central,40707,"Habitación en MEDELLÍN, Colombia",-75.6042006378156,6.225462710967001,5,5.0,,,,02/22,False,1
20533043,Amplia y Cómoda habitación en Envigado.,39000,"Habitación en Envigado, Colombia",-75.58343,6.17174,2,,,,,02/18,False,1
952137874043913080,habitación #3 Cómoda y central,44357,"Habitación en MEDELLÍN, Colombia",-75.5576691,6.2611561,3,4.0,,,,08/23,True,1
40403333,Habitación en edificio seguro cerca al centro.,42000,"Habitación en MEDELLÍN, Colombia",-75.55812,6.25566,5,5.0,,,,02/22,False,1
863758671521918645,habitación privada #3,43542,"Habitación en MEDELLÍN, Colombia",-75.5612903,6.2580529,6,4.83,,,,02/22,False,1
22066610,HABITAción DE MEDELLÍN BILINGÜE,47501,"Habitación privada en apartamento con servicios incluidos en Dymek, Colombia",-75.61333,6.28178,2,,05/2013,True,13,02/13,False,1
795167539760038973,pequeño Amanecer en laureles,39584,"Habitación en MEDELLÍN, Colombia",-75.59409649999999,6.233042999999999,5,4.8,,,,02/19,False,1
760923026511754159,Hab. Doble Estandar - Hostal Los Colores,41403,"Habitación en MEDELLÍN, Colombia",-75.59474860400758,6.262669324463697,18,4.94,,,,02/22,False,1
31680073,alojamiento Guillen,40000,"Habitación en MEDELLÍN, Colombia",-75.61324,6.24189,1,,,,,06/23,False,1
920387530598822865,Comoda Habitacion,42000,"Habitación en MEDELLÍN, Colombia",-75.5593064,6.2493002,0,,,,,04/23,True,1
791222494844170267,habitación baño privado zona segura,39584,"Habitación en MEDELLÍN, Colombia",-75.58508,6.23612,13,5.0,,,,02/23,False,1
822577180046657051,Casa Colonial Habitación 2,43173,"Habitación en Envigado, Colombia",-75.58195006102324,6.160975229672216,0,,,,,02/17,False,1
18346172,Sala de belleza 2,39584,"Habitación en Envigado, Colombia",-75.5812,6.16296,1,,,,,02/17,False,1
939397759684148908,Habitación al norte de MEDELLÍN.,39912,"Habitación en Bello, Colombia",-75.5426288,6.3313432,2,,,,,08/23,False,1
688588983360161466,,,,,,,,,,,,,
45516753,Alojamiento sector Envigado,56446,"Habitación en Envigado, Colombia",-75.58065,6.17211,4,5.0,,,,02/21,False,1
590700437534872733,Habitación 3 en Belén cerca de Metroplús,39420,"Habitación en MEDELLÍN, Colombia",-75.60381,6.22718,13,4.77,,,,02/22,False,1
880360436482363889,chalohouse,40569,"Habitación en MEDELLÍN, Colombia",-75.55526944127806,6.244201254253212,0,,,,,02/20,False,1
1050275231251606171,Increíble internet de alta velocidad en la habitación.,40000,"Habitación en MEDELLÍN, Colombia",-75.60117,6.25163,0,,,,,12/23,False,1
37095493,"Habitación ideal, privada.",39000,"Habitación en MEDELLÍN, Colombia",-75.58084,6.22935,20,4.95,,,,02/19,False,1
937871838802792314,Habitación privada 05 CasaHostal,40300,"Habitación en MEDELLÍN, Colombia",-75.58329440000001,6.222599499999999,1,,,,,08/23,False,1
18345848,Sala de belleza 1,39584,"Habitación en Envigado, Colombia",-75.58146,6.169,5,4.8,,,,02/17,False,1
1026250745770281001,Artística habitación privada en parques del Río,60858,"Habitación en MEDELLÍN, Colombia",-75.58433305265692,6.243332557497836,3,4.67,,,,06/23,False,1
40682402,"Habitación ideal, privada",39000,"Habitación en MEDELLÍN, Colombia",-75.59159,6.23176,4,5.0,,,,02/19,False,1
868708888527095855,habitacion comoda en laureles,38400,"Habitación en MEDELLÍN, Colombia",-75.6046456,6.245598999999999,0,,,,,05/23,False,1
1034646215538688250,Hermoso apartamento dúplex cerca al estadio.,143228,"Vivienda rentada entero en MEDELLÍN, Colombia",-75.5877814,6.2636983,5,4.6,01/2018,True,5,12/23,False,3
967256343702413359,la casa del descanso,38303,"Habitación en MEDELLÍN, Colombia",-75.55808979999999,6.2336264,1,,,,,09/23,False,1
761522172548203391,Triple Econom baño Compartido - Hostal Los Colores,41403,"Habitación en MEDELLÍN, Colombia",-75.59584,6.263648,4,5.0,,,,02/22,False,1
14716447,Un espacio ideal para compartir.,39584,"Habitación en MEDELLÍN, Colombia",-75.56512,6.24268,1,,08/2016,True,,02/17,False,1
877568599134812492,Habitación privada con baño compartido,41000,"Habitación en MEDELLÍN, Colombia",-75.58448,6.23967,9,5.0,,,,02/23,False,1
945711936563134373,Habitación amoblada,40000,"Habitación en MEDELLÍN, Colombia",-75.59727137327745,6.276735662942886,0,,,,,02/21,False,1
18346499,Beauty ROOM 3 -,39584,"Habitación en Envigado, Colombia",-75.58192,6.16153,4,4.0,,,,02/17,False,1
1021078963936181777,arriendo habitación,36000,"Habitación en MEDELLÍN, Colombia",-75.6023405,6.211875399999999,0,,02/2023,True,,12/23,False,1
48833111,Habitación con baño privado en centro hitórico,40732,"Habitación en MEDELLÍN, Colombia",-75.56117,6.25903,19,4.89,,,,02/21,False,1
761534714500246004,Camarote Familiar - Hostal Los Colores,41403,"Habitación en MEDELLÍN, Colombia",-75.59584,6.263648,3,4.67,,,,02/22,False,1
46237605,Habitación Manila Poblado (3) / Oferta especial al mes completo,39584,"Habitación en MEDELLÍN, Colombia",-75.57061,6.21682,3,5.0,,,,02/16,False,1
52352682,Habitación con baño privado,38275,"Habitación en MEDELLÍN, Colombia",-75.58474,6.26818,1,,,,,02/20,False,1
898748406447283498,habitación en urbanización,40800,"Habitación en Bello, Colombia",-75.55342745035887,6.317040722189788,0,,,,,07/23,False,1
861803806821674926,habitación privada en casa,36510,"Habitación en MEDELLÍN, Colombia",-75.60901790857315,6.211406119308861,0,,,,,04/23,False,1
942657337014300207,"En alquiler , envigado",36000,"Habitación en Envigado, Colombia",-75.58595694601536,6.160462218540447,0,,,,,09/23,False,1
49884996,Habitación privada en excelente zona de Envigado,39000,"Habitación en Envigado, Colombia",-75.58326,6.17148,3,4.0,,,,02/18,False,1
18886189,Excelente! Cerca al tranvia y el centro de ciudad,43152,"Habitación en MEDELLÍN, Colombia",-75.54949188232422,6.238894939422607,2,,05/2017,True,2,02/17,False,1
960497640751804827,Habitación 02- Laureles-Estadio,47143,"Habitación en MEDELLÍN, Colombia",-75.59331250689941,6.266719867650858,21,4.86,,,,04/23,False,3
962685443760831830,,,,,,,,,,,,,
1058760168387381803,Aparta estudio súper central,60000,"Vivienda rentada entero en Bello, Colombia",-75.55039326627097,6.30910078032749,4,3.75,03/2019,True,72,02/22,False,1
806482059680521266,Habitación en hostal-Cerca a Laureles/Belén,55000,"Habitación en MEDELLÍN, Colombia",-75.59798,6.23348,19,4.79,,,,02/23,True,1
1045595402241663028,tu mejor opción escríbenos,60000,"Vivienda rentada entero en MEDELLÍN, Colombia",-75.56218657546394,6.263967135612549,1,,12/2023,True,,01/24,False,1
805232379788948689,"Upb, Laureles, San Joaquín",69000,"Habitación en MEDELLÍN, Colombia",-75.58561913082922,6.246269494524862,23,4.78,,,,02/20,False,1
998774017413185200,pequeña habitación Cómoda en Belén-Laureles,55000,"Habitación en MEDELLÍN, Colombia",-75.59861808689696,6.235172361318548,3,5.0,,,,02/23,False,1
38699580,Habitación casa colonial cerca al metro y Céntrica,43857,"Habitación en MEDELLÍN, Colombia",-75.55627,6.27715,40,4.95,,,,02/20,False,1
848416066050293865,"Casa Belén Habitación 5, Belén parque/Laureles",48000,"Habitación en MEDELLÍN, Colombia",-75.5953011,6.2338214,13,4.92,,,,02/23,False,1
1047156732980290525,Habitacion comoda en Apartamento,55000,"Habitación en MEDELLÍN, Colombia",-75.5800403,6.2790962,1,,,,,12/23,False,1
684826273098224577,Habitaciones tipo hostal  Av La  70  Estadio nro 4,53000,"Habitación privada en apartamento con servicios incluidos en MEDELLÍN, Colombia",-75.5929855,6.249683000000001,38,4.87,04/2022,True,98,02/22,True,1
48299436,Habitación privada Poblado Via Provenza la florida.,45799,"Habitación en MEDELLÍN, Colombia",-75.5636,6.20389,57,4.39,,,,02/19,False,1
935157807391781619,Espectacular Habitación Sabaneta,45000,"Habitación en Sabaneta, Colombia",-75.62488069340515,6.152876704032353,15,5.0,,,,09/23,False,1
664654346594394921,Hab. cerca a poblado y terminal del sur,44049,"Habitación en MEDELLÍN, Colombia",-75.58766952503912,6.208260579582381,30,4.77,,,,11/23,False,1
1047929886950548042,,,,,,,,,,,,,
52354215,ESTANCIA rápida EN 1 HABITAción PARA ALOJARSE,47015,"Habitación en MEDELLÍN, Colombia",-75.56916,6.2943,9,4.44,,,,02/22,True,1
834939043921823853,"MEDELLÍN. 
Aparta estudio. 
Independiente.",39584,"Vivienda rentada entero en MEDELLÍN, Colombia",-75.57716,6.3073,14,4.5,11/2022,True,17,02/23,False,1
943362864125343340,Aparta Estudio en MEDELLÍN,50357,"Vivienda rentada entero en MEDELLÍN, Colombia",-75.56118699999999,6.2757044,10,5.0,11/2020,True,5,02/22,False,1
48301181,Habitación con encanto privado a través de Provenza,44690,"Habitación en MEDELLÍN, Colombia",-75.56366,6.20527,58,4.64,,,,02/19,False,1
860419624435974917,Habitación Cómoda en casa grande  (laureles-Belén),55571,"Habitación en MEDELLÍN, Colombia",-75.59776,6.23443,19,4.89,,,,02/23,True,1
901710902180675360,"Céntrica, tranquila habitación cerca al poblado",49500,"Habitación en Itagüí, Colombia",-75.59372386611402,6.188998831221189,8,4.38,,,,06/23,False,1
655927225640767617,"Habitacion en casa familiar, tranquila y amigable",47501,"Habitación en MEDELLÍN, Colombia",-75.59683,6.26374,2,,,,,02/22,False,1
977787309274092696,cuarto acogedor fresco y Cómodo A3,46571,"Habitación en MEDELLÍN, Colombia",-75.57220119497084,6.217626590728916,8,5.0,,,,04/23,False,1
53592411,MEDELLÍN (Bello)Apartamento,49000,"Loft entero en Bello, Colombia",-75.55351,6.35034,21,4.57,11/2021,True,26,02/23,False,1
1012392190598605816,Cómoda Habitación con wifi y mesa de trabajo.,58005,"Habitación en Envigado, Colombia",-75.5821462,6.1718207,3,5.0,,,,03/23,False,1
36240802,Estoy listo para alojar exelente ambiente Familiar,45195,"Habitación en MEDELLÍN, Colombia",-75.60874,6.28596,19,4.89,07/2018,True,19,02/18,True,1
670207637236671364,Cómoda habitación privada con excelente ubicación,60000,"Habitación en MEDELLÍN, Colombia",-75.6035414892127,6.264136891204407,3,5.0,,,,01/24,False,1
967476366424223316,pequeña y acogedora habitación Tesoro Poblado,68571,"Habitación en MEDELLÍN, Colombia",-75.55859353867679,6.1924108919499625,16,4.94,,,,09/23,False,1
785526450916892528,Habitación cerca al parque LaFloresta y comuna 13.,48500,"Habitación en MEDELLÍN, Colombia",-75.60397166758776,6.255829513152195,2,,,,,08/23,False,1
907508385103512420,Cómodo apartaestudio en san javi,48472,"Vivienda rentada entero en MEDELLÍN, Colombia",-75.62079925807635,6.259068849960355,0,,06/2023,True,,12/23,False,1
948410671124332857,como en casa,47548,"Habitación en MEDELLÍN, Colombia",-75.59800299999999,6.2200757,1,,,,,09/23,False,1
821936573277586725,Habitación privada 101,49004,"Habitación en MEDELLÍN, Colombia",-75.58523,6.2107,1,,,,,03/23,False,1
821060962916764761,"Mi hogar,es tu lugar!",50667,"Habitación privada en apartamento con servicios incluidos en MEDELLÍN, Colombia",-75.6034818,6.270485799999999,0,,11/2020,True,,12/23,False,1
929539341064255663,Habitación en apartamento acogedor,47000,"Habitación en Bello, Colombia",-75.55123709142208,6.34219309454232,13,5.0,,,,08/23,False,1
743662859812090101,Habitación con cama doble.,45342,"Habitación en MEDELLÍN, Colombia",-75.59577,6.24999,13,4.85,,,,02/19,False,1
889299227728339791,Habitación con cama doble al frente de la UdeA,52071,"Habitación en MEDELLÍN, Colombia",-75.56901,6.26333,8,4.88,,,,06/23,False,1
907906496172529683,Habitación acogedora en laureles,45000,"Habitación en MEDELLÍN, Colombia",-75.60318,6.23894,16,4.81,,,,06/23,True,1
933517666375690969,"Habitación, con jardín en Belén",55000,"Habitación en MEDELLÍN, Colombia",-75.59836647301634,6.23400025394323,18,4.94,,,,02/23,True,1
930690831566324316,Maravilloso Descanso en el sur cerca del poblado,49500,"Habitación en Itagüí, Colombia",-75.59462950198075,6.18957570372049,1,,,,,06/23,False,1
1033505531367721717,Habitación cerca al parque  LaFloresta y Comuna 13,48500,"Habitación en MEDELLÍN, Colombia",-75.6039716,6.2558278,0,,,,,08/23,False,1
981874356174587412,Acogedora Habitación Amoblada + Desayuno,44875,"Habitación en MEDELLÍN, Colombia",-75.54721880704165,6.295026392265446,3,5.0,,,,10/23,False,1
1053055426576608046,Loft Apartment Exito Laureles,80000,"Vivienda rentada entero en MEDELLÍN, Colombia",-75.6006782190352,6.2521705964568755,3,4.67,12/2023,True,17,12/23,True,1
23063676,ACOGEDOR DORMITORIO CERCA DEL CENTRO DE MEDELLÍN,47501,"Habitación en MEDELLÍN, Colombia",-75.5599336674263,6.255643750230158,187,4.78,,,,02/18,False,1
37839924,Comparte en familia en un lugar Acogedor y Seguro,47014,"Habitación en MEDELLÍN, Colombia",-75.60854,6.20539,100,4.96,,,,02/20,False,1
911442308229059343,Habitacion #3,46000,"Habitación en Bello, Colombia",-75.56131,6.31225,9,4.44,,,,06/23,True,1
952198689923626358,Habitación privada Poblado Via Provenza la florida.,45799,"Habitación en MEDELLÍN, Colombia",-75.56341395484183,6.205592844776876,3,4.67,,,,02/19,False,1
606472142541272132,Habitación privada en sector Estadio.,48000,"Habitación en MEDELLÍN, Colombia",-75.59708,6.25086,20,4.75,,,,02/19,False,1
37720294,Habitación en Envigado cerca a metro,47501,"Habitación en Envigado, Colombia",-75.59008079358568,6.1718434484471745,28,4.82,,,,02/17,False,1
952227035329724363,Habitación con encanto privado en la Provenza,44690,"Habitación en MEDELLÍN, Colombia",-75.56363935791892,6.205125777555014,5,4.6,,,,02/19,False,1
1022382932414811798,Habitación Laureles estadio,60000,"Habitación en MEDELLÍN, Colombia",-75.5995202226653,6.2636390045444355,10,4.9,,,,05/23,False,1
1026956147255542242,Habitación 2: cerca al Poblado (baño privado),59376,"Habitación en MEDELLÍN, Colombia",-75.59041082564694,6.195061707866533,4,4.75,,,,12/23,False,1
908672508178826350,Acogedor dormitorio privado,50000,"Habitación en MEDELLÍN, Colombia",-75.59657,6.24689,4,5.0,,,,06/23,True,1
1044440216926679772,Habitación Estadio laureles,60000,"Habitación en MEDELLÍN, Colombia",-75.59932802330324,6.263196655080528,4,4.75,,,,05/23,True,1
948771898652471815,Habitación secundaria,42322,"Habitación en Bello, Colombia",-75.56767108437357,6.329502853286426,9,4.89,,,,08/23,False,1
827082279206810441,Habitación en Edificio La Casona,48862,"Habitación privada en loft en Bello, Colombia",-75.5678135,6.347149,1,,02/2023,True,,03/23,False,1
1004389886874329487,Habitacion 6 Belen Metroplus,43822,"Habitación en MEDELLÍN, Colombia",-75.60323064418031,6.226000644452874,7,5.0,,,,02/22,False,1
932532487394597302,Habitación Sencilla con baño,48000,"Habitación en MEDELLÍN, Colombia",-75.5725605,6.2046605,5,5.0,,,,02/15,False,1
51969266,Habitación 2 en Belén cerca de Metroplús,42000,"Habitación en MEDELLÍN, Colombia",-75.60251,6.22576,11,4.91,,,,02/22,False,1
844936853793759944,Habitación #2 en centro hitórico de MEDELLÍN,45641,"Habitación en MEDELLÍN, Colombia",-75.5654328,6.2562323,30,4.93,,,,02/18,False,1
974729099214788029,Habitación con dos camas,45000,"Habitación en MEDELLÍN, Colombia",-75.60000430921596,6.192579226976155,4,5.0,,,,02/18,False,1
1050280961359602765,baño privado Laureles mall,41600,"Habitación en MEDELLÍN, Colombia",-75.60491234534918,6.244155162447886,0,,,,,12/23,False,1
1019453182367740728,Hermosa Habitación en Unidad Cerrada,44057,"Habitación en Bello, Colombia",-75.55171586573124,6.34207679954717,8,5.0,,,,12/23,False,1
1041225575007982970,Exito Laureles Increíble habitación Internet de alta velocidad,55000,"Habitación en MEDELLÍN, Colombia",-75.60310948835921,6.243407762834742,5,5.0,,,,12/23,False,1
27521003,MEDELLÍN amable en centro hitórico habitación 1,49600,"Habitación en MEDELLÍN, Colombia",-75.56547,6.25568,153,4.89,,,,02/18,False,1
54307690,Agradable casa con Cómodas habitaciones. Cielo,44000,"Habitación en MEDELLÍN, Colombia",-75.60071012226427,6.228359222412086,19,5.0,,,,02/22,False,1
956188839324895739,San Joaquín laureles la 70,69000,"Habitación en MEDELLÍN, Colombia",-75.5851678,6.2465515,4,4.75,,,,02/20,False,1
808127660609858952,Cerca a todo. Transporte fácil.,47646,"Habitación en Bello, Colombia",-75.55604,6.33347,1,,,,,02/23,False,1
853667396129266170,MiniLoft completo/Lirio/Belén/Central,44900,"Alojamiento entero en MEDELLÍN, Colombia",-75.6003891,6.2321519,8,5.0,03/2023,True,34,04/23,True,1
35219962,Gran Habitación +Piscina.Cerca al Metro y Poblado,47501,"Habitación en Envigado, Colombia",-75.59677,6.15474,8,4.88,,,,02/19,False,1
900047711003133858,Casa Huitaca,47501,"Habitación en MEDELLÍN, Colombia",-75.59808,6.22059,0,,,,,02/22,False,1
52246875,Habitación 1 en Belén cerca de Metroplús,44616,"Habitación en MEDELLÍN, Colombia",-75.60206,6.22507,22,4.86,,,,02/22,False,1
54329400,Agradable casa con comodas habitaciones. Arboleda,46481,"Habitación en MEDELLÍN, Colombia",-75.59982,6.22953,31,4.9,,,,02/22,False,1
845117207725979646,Habitación privada en Envigado 1,43542,"Habitación en Envigado, Colombia",-75.57993270456791,6.17762261817651,10,5.0,,,,05/23,False,1
45667085,1 Habitación  perfecta para descansar,45337,"Habitación privada en apartamento con servicios incluidos en MEDELLÍN, Colombia",-75.58684539794922,6.244132041931152,11,4.82,09/2020,True,28,02/21,False,1
868715274323258519,habitacion privada en laureles,48000,"Habitación en MEDELLÍN, Colombia",-75.60528,6.24478,2,,,,,05/23,False,1
34399039,Habitación privada en Sabaneta con hermosa vista,55000,"Habitación en Sabaneta, Colombia",-75.62742,6.14511,1,,,,,05/23,False,1
49110883,aparta estudio medellin estacion popular 3 cuadras,46500,"Apartamento con servicios incluidos entero en MEDELLÍN, Colombia",-75.54792,6.29921,18,4.5,08/2019,True,48,02/21,False,2
810273411385811924,Habitación Privada.,47000,"Habitación en MEDELLÍN, Colombia",-75.57986,6.27301,1,,,,,02/23,False,1
781952868983742866,Habitación en casa familiar en MEDELLÍN,47501,"Habitación en MEDELLÍN, Colombia",-75.59806,6.2655,4,4.75,,,,02/22,False,1
932692561307397767,Botánico - Apartaestudio,45143,"Vivienda rentada entero en MEDELLÍN, Colombia",-75.60173605827218,6.227141097717664,9,5.0,07/2023,True,13,08/23,True,1
1049937470749165737,,,,,,,,,,,,,
947241504871512077,Envigado-Antioquia,48000,"Habitación en Envigado, Colombia",-75.585511,6.15809,1,,,,,09/23,False,1
711009777040694095,Hostal Urban City MEDELLÍN,49303,"Habitación en MEDELLÍN, Colombia",-75.59602699999999,6.268462299999999,1,,09/2022,True,,02/23,False,1
912553968633568541,cerca de la naturaleza,46786,"Habitación en Envigado, Colombia",-75.57613804936409,6.1492902123367985,1,,,,,07/23,False,1
984053336322499856,alcoba privada en medellin,47501,"Habitación en MEDELLÍN, Colombia",-75.617397577389,6.258690071132511,3,5.0,,,,10/23,False,1
51549203,"Habitación luminosa, baño & cocineta en Laureles",55000,"Habitación en MEDELLÍN, Colombia",-75.5990158162318,6.247162423095548,10,4.3,,,,02/16,False,1
802247426379466534,"Room Hierbabuena, Casa Pistacho",48320,"Habitación en MEDELLÍN, Colombia",-75.60181,6.25174,0,,,,,02/19,False,1
845129438916790181,Habitación privada en Envigado 2,43542,"Habitación en Envigado, Colombia",-75.57993270456791,6.17762261817651,3,4.67,,,,05/23,False,1
938572123202186100,"Habitación amplia, baño privado",49429,"Habitación en MEDELLÍN, Colombia",-75.59381749480963,6.258448418028941,4,5.0,,,,08/23,False,1
847095094343667460,Lindo y económico aparta estudio,48000,"Vivienda rentada entero en Itagüí, Colombia",-75.60723,6.17955,7,4.86,12/2020,True,50,02/22,False,1
838533698132518833,Casa de  juan,45000,"Habitación en Envigado, Colombia",-75.58533,6.17628,3,5.0,,,,06/23,False,1
563615983008532336,Habitación privada en casa con terraza.,47948,"Habitación en Envigado, Colombia",-75.58155,6.17252,14,4.93,,,,02/22,False,1
797960107467546746,"Habitación Pino, casa Pistacho.",48320,"Habitación en MEDELLÍN, Colombia",-75.60232669999999,6.252756799999999,0,,,,,02/19,False,1
823112257510100061,Habitación con baño Privado,46014,"Habitación en Envigado, Colombia",-75.58643,6.18173,0,,,,,03/23,False,1
841243005803608037,Habitación Privada Parque Envigado,45000,"Habitación en Envigado, Colombia",-75.58784488588572,6.1733849848088616,25,5.0,,,,02/23,False,1
816886997542205105,Espacio compartido cerca del centro de la ciudad,47966,"Habitación en MEDELLÍN, Colombia",-75.5575267,6.2507958,1,,01/2014,True,,02/23,False,1
842893112460268574,Habitación en Envigado 1,48000,"Habitación en Envigado, Colombia",-75.58845326899008,6.166252787864602,0,,12/2020,True,3,09/23,False,1
858843068680508241,habitación en casa compartida.,47429,"Habitación en MEDELLÍN, Colombia",-75.56633826345205,6.277374597692331,0,,,,,02/23,False,1
650617443518608089,habitación 5 del hostal de transformación.,45260,"Habitación en MEDELLÍN, Colombia",-75.555015,6.234349,0,,09/2018,,4,02/22,True,1
826776414086158625,Hostal Casa Linda.,45000,"Habitación privada en alojamiento en MEDELLÍN, Colombia",-75.5598558467426,6.258745531278674,0,,02/2023,True,3,06/23,True,14
786158278361358224,Habitación privada en ambiente tranquilo,47859,"Habitación en MEDELLÍN, Colombia",-75.60717724263668,6.284256823955559,0,,,,,02/23,False,1
821789271499668013,Espacio compartido cerca del centro,47966,"Habitación en MEDELLÍN, Colombia",-75.5575267,6.2507958,0,,01/2014,True,,02/23,False,1
779131215734257211,Habitación Edificio Seguro,47016,"Habitación en MEDELLÍN, Colombia",-75.55729,6.25447,1,,,,,02/22,True,1
23130416,Habitación en apto compartido con una persona.,50000,"Habitación privada en apartamento con servicios incluidos en MEDELLÍN, Colombia",-75.59188,6.23438,6,5.0,11/2011,True,52,02/11,False,1
878460493648497288,en el mejor sitio de niquia,46638,"Habitación en Bello, Colombia",-75.5418065281781,6.3406133051425435,0,,,,,05/23,False,2
34784646,Habitación Cómoda+Piscina.Cerca al Metro y Poblado,47501,"Habitación en Envigado, Colombia",-75.59706,6.15403,16,4.81,,,,02/19,False,1
805871074463131537,Casa El Laberinto SUITE2 Natural Central Tranquilo,50000,"Habitación en Envigado, Colombia",-75.5729278,6.1723317,12,4.92,,,,02/23,False,1
990812987392662580,,,,,,,,,,,,,
54329183,Agradable casa con comodas habitaciones. Páramo,44000,"Habitación en MEDELLÍN, Colombia",-75.59988,6.22781,31,4.94,,,,02/22,False,1
53637587,Habitación cerca del estadio/MEDELLÍN,47982,"Habitación en MEDELLÍN, Colombia",-75.58823,6.26344,1,,,,,02/16,False,1
797976990603895802,"Habitación Jade, Casa Pistacho.",48320,"Habitación en MEDELLÍN, Colombia",-75.60232669999999,6.252756799999999,0,,,,,02/19,False,1
710957518542605931,Dormitorio privado con balcon en barrio seguro. D3,47501,"Habitación en MEDELLÍN, Colombia",-75.60097049888077,6.254844354400861,0,,,,,02/22,False,1
990864782512229858,,,,,,,,,,,,,
917356915063971033,Joseph�s Home Habitación 3,48000,"Habitación en MEDELLÍN, Colombia",-75.597081,6.2475502,0,,06/2023,True,3,07/23,True,1
650086108098368201,Habitación amoblada Laureles,42120,"Habitación privada en apartamento con servicios incluidos en MEDELLÍN, Colombia",-75.58617,6.24481,4,5.0,02/2020,True,4,02/22,False,1
52884817,lugar acogedor para tus días de descanso,48000,"Habitación en Bello, Colombia",-75.55812,6.33651,2,,,,,02/22,False,1
1058273814537650800,Tranquila habitación privada en Belén/Netflix,56000,"Habitación en MEDELLÍN, Colombia",-75.5857336215013,6.237938006570654,2,,,,,02/23,False,1
989623923700989144,Hermosa habitación como nueva,49857,"Habitación en MEDELLÍN, Colombia",-75.5842297,6.234285499999999,30,4.77,,,,02/20,False,1
32112730,Habitación con baño privado en el barrio Estadio,55000,"Habitación en MEDELLÍN, Colombia",-75.59321,6.26004,28,4.75,,,,02/18,False,1
894983118679001274,Habitación-Priv. baño de 200 Mbps WiFi-Own espacio de trabajo GH6,54731,"Habitación en MEDELLÍN, Colombia",-75.58069,6.25303,17,4.82,,,,02/22,False,1
820495290719562699,,,,,,,,,,,,,
53767192,Habitación privada San Joaquin- laureles,69000,"Habitación en MEDELLÍN, Colombia",-75.58601,6.24697,12,4.58,,,,02/20,False,1
26027480,Habitación baño agua caliente tv closet wifi,55000,"Habitación en Itagüí, Colombia",-75.6004,6.18992,68,4.97,,,,02/18,False,1
960070544898839720,Habitación en Laureles - Estadio,61429,"Habitación privada en apartamento con servicios incluidos en MEDELLÍN, Colombia",-75.59348828584442,6.267024805440378,15,4.8,06/2018,True,81,04/23,True,1
918996578633984560,Agradable Hab para 2 en Envigado,64269,"Habitación en Envigado, Colombia",-75.58731376700955,6.176787184450878,12,4.67,,,,02/22,False,1
901197782510497780,"Habitacion central,balcon,comfort,calidad y precio",53000,"Habitación en MEDELLÍN, Colombia",-75.59034,6.24617,6,4.5,,,,04/23,False,1
41508600,"Habitación pequeña, la mejor ubicación, ¡Cerca del Poblado!",39584,"Vivienda rentada entero en MEDELLÍN, Colombia",-75.58141,6.22368,123,4.88,01/2020,True,123,02/20,False,1
776035145580168950,Cómoda Habitación Privada en Laureles Estadio h3,50900,"Habitación en MEDELLÍN, Colombia",-75.5963537116394,6.2507163698946675,6,4.83,,,,02/22,False,1
19504009,HABITAción CómodA CON baño PRIVADO,49995,"Habitación en MEDELLÍN, Colombia",-75.60306,6.23742,31,4.84,,,,02/17,False,1
1037074354134344473,San Joaquin estadio laureles upb,62100,"Habitación en MEDELLÍN, Colombia",-75.58364900798149,6.247301798984748,3,5.0,,,,02/20,False,1
664643396407665117,Hab cerca poblado-baño privado,45858,"Habitación en MEDELLÍN, Colombia",-75.58738722826082,6.208348261673121,28,4.79,,,,11/23,False,1
994401705530682481,Alojamiento en zona comercial,52857,"Habitación en Itagüí, Colombia",-75.5940396,6.189868199999999,5,5.0,,,,02/22,False,1
13550973,Habitación en Conquistadores cerca de la UPB,54910,"Habitación en MEDELLÍN, Colombia",-75.58437,6.24481,21,4.76,,,,02/16,False,1
571823200052617263,Habitacion muy cerca a la estación metro Envigado,52000,"Habitación en Itagüí, Colombia",-75.595634,6.178155,29,4.69,,,,02/22,False,2
862365521287569828,Casa Floresta de Paisa,61000,"Vivienda rentada entero en MEDELLÍN, Colombia",-75.59782,6.25545,15,4.73,07/2018,True,155,02/18,False,2
936520410170917990,Moderna y Cómoda Habitación Privada En MEDELLÍN 2,43300,"Habitación en MEDELLÍN, Colombia",-75.56360584391936,6.282008852839818,7,5.0,,,,02/22,False,1
776248214151908978,"Habitación Península #4, Laureles",61380,"Habitación en MEDELLÍN, Colombia",-75.59143,6.24144,9,4.89,,,,02/23,False,1
40329025,RELAJANTE 5,55000,"Habitación en MEDELLÍN, Colombia",-75.59071,6.25231,28,4.89,,,,02/20,False,1
996385545769261821,Habitación 1/2 personas,73000,"Habitación en MEDELLÍN, Colombia",-75.58717793587229,6.250262298848806,2,,,,,01/24,True,0
806496770785297170,"Habitación privada,  acogedora cerca a laureles",59000,"Habitación en MEDELLÍN, Colombia",-75.59757,6.23479,15,4.53,,,,02/23,True,1
837105633240451421,,,,,,,,,,,,,
949538067642474164,Habitación independiente,55000,"Habitación privada en alojamiento en Sabaneta, Colombia",-75.616351,6.1531256,14,4.14,02/2023,True,128,04/23,True,1
890714058462606747,Exclusiva casa en MEDELLÍN habitación N�4,70000,"Habitación en MEDELLÍN, Colombia",-75.60907569999999,6.250057,5,4.6,,,,06/23,False,1
1016693293984418927,Habitación Amoblada Laureles 5,53429,"Habitación en MEDELLÍN, Colombia",-75.58615139999999,6.253333200000001,4,5.0,,,,06/23,False,1
675470795643736252,"Excelente precio en Laureles, lugar limpio",55257,"Habitación en MEDELLÍN, Colombia",-75.587938,6.2460233,35,4.94,,,,02/22,False,1
882835285929297082,Comoda Habitacion en medellin,52000,"Habitación en MEDELLÍN, Colombia",-75.59237,6.26113,1,,,,,02/18,False,1
1034098477959407834,Habitación amoblada laureles 6,55000,"Habitación en MEDELLÍN, Colombia",-75.58615139999999,6.253333200000001,0,,,,,06/23,False,1
958815484270649983,Agradable Refugio!,65000,"Habitación en MEDELLÍN, Colombia",-75.60184290042822,6.2339896283714955,3,5.0,,,,09/23,False,1
53924719,"A 10 min del Poblado, cerca Terminal del Sur y AAA",43274,"Habitación en MEDELLÍN, Colombia",-75.58688417136642,6.2088600853295475,34,4.62,,,,11/23,False,1
1049926426716260329,Acogedora habitación metro cerca,52000,"Habitación en Bello, Colombia",-75.55078949779272,6.314277450701022,0,,,,,01/24,False,1
977476535732986664,Cómoda y central habitación con balcón privado.,54000,"Habitación en Itagüí, Colombia",-75.59453681719665,6.18754673266904,2,,,,,11/23,False,1
642054942778119440,Habitación tranquila en envigado con piscina,55000,"Habitación en Envigado, Colombia",-75.57453,6.16587,30,4.37,,,,02/19,False,1
1016634096758887872,,,,,,,,,,,,,
966892779705801469,,,,,,,,,,,,,
805670340031148296,Habitacion bien ubicada-poblado,56000,"Habitación en MEDELLÍN, Colombia",-75.5733348730281,6.213565244369466,22,4.86,,,,02/18,False,1
27135633,Paisa 's  House 2,58000,"Condo entero en MEDELLÍN, Colombia",-75.59773,6.27638,30,4.73,07/2018,True,155,02/18,True,1
1016668503446574464,Habitación Amoblada Laureles 4,53429,"Habitación en MEDELLÍN, Colombia",-75.586741351111,6.252208346703085,2,,,,,06/23,False,1
749222551875364006,Habitación Privada en el Cielo de MEDELLÍN,52714,"Habitación en MEDELLÍN, Colombia",-75.60847,6.21247,10,5.0,,,,02/23,False,1
1054579672885695310,Estudio Nuevo en San Javier -Cerca Estación Metro,65000,"Vivienda rentada entero en MEDELLÍN, Colombia",-75.61456320809931,6.259436423750266,2,,11/2019,True,11,12/23,True,1
833296710921000712,Aparta estudio en la frontera Poblado - Envigado *,66571,"Vivienda rentada entero en Envigado, Colombia",-75.56656,6.17436,42,4.64,04/2016,True,353,02/21,True,1
820505218928737724,,,,,,,,,,,,,
1015797104963326556,Habitación cercana al centro 102,54857,"Habitación en MEDELLÍN, Colombia",-75.55016226308747,6.249202735658289,2,,,,,02/23,False,1
827626379660800010,"Habitación Laureles, central",55418,"Habitación en MEDELLÍN, Colombia",-75.6000713,6.2487051,6,5.0,,,,08/23,False,1
573776427160242008,Cómoda habitación Estadio-Laureles,62100,"Habitación en MEDELLÍN, Colombia",-75.587692,6.250252,36,5.0,,,,02/18,False,1
1033392996012742303,Cómoda Habitación para 2 personas con baño privado,56000,"Habitación en MEDELLÍN, Colombia",-75.5563603,6.234618299999999,0,,,,,12/23,False,1
781754442513922276,Habitación privada Laureles h7,51057,"Habitación en MEDELLÍN, Colombia",-75.59682578042602,6.250844350513598,16,4.69,,,,02/22,False,1
578248926836856369,BELLA HABITACION PRIVADA-ESTADIO LAURELES,63431,"Habitación en MEDELLÍN, Colombia",-75.587692,6.250252,41,5.0,,,,02/18,False,1
664341397174456329,Hab. cerca a Poblado y terminal del sur,44944,"Habitación en MEDELLÍN, Colombia",-75.58924656167945,6.210398798130502,28,4.75,,,,11/23,False,1
953825731393906392,Jungle Box - Experiencia única,55857,"Habitación en Envigado, Colombia",-75.59646169999999,6.1597579,18,4.94,,,,09/23,False,1
890669380614854915,Exclusiva casa en MEDELLÍN habitación N�3,70000,"Habitación en MEDELLÍN, Colombia",-75.60907569999999,6.250057,1,,,,,06/23,False,1
1026710358810958103,Habitación Privada en Envigado,80000,"Habitación en Envigado, Colombia",-75.59042534931758,6.172831477965832,4,5.0,,,,12/23,False,1
1050164895043038277,,,,,,,,,,,,,
48517853,CASA GRANDE CERCA ESTAción METRO CABLE POPULAR,49057,"Apartamento con servicios incluidos entero en MEDELLÍN, Colombia",-75.54631,6.298616,28,4.82,08/2019,True,48,02/21,False,2
746609886416644017,Cómoda Habitación Privada en Laureles Estadio h2,50173,"Habitación en MEDELLÍN, Colombia",-75.59646114706995,6.250737641962795,15,4.6,,,,02/22,False,1
1011754201800782385,Cómoda Habitación con escritorio y WIFI,56235,"Habitación privada en alojamiento en Envigado, Colombia",-75.58281003834327,6.170747195661738,0,,12/2022,True,33,03/23,False,1
820429856047902066,,,,,,,,,,,,,
1021039159791558545,Habitación Amoblada Laureles 7,44000,"Habitación en MEDELLÍN, Colombia",-75.58615139999999,6.253333200000001,0,,,,,06/23,False,1
860963143581287374,Aparta Estudio en MEDELLÍN,51459,"Vivienda rentada entero en MEDELLÍN, Colombia",-75.57937145233154,6.306934774532775,7,4.57,06/2022,True,27,02/23,False,1
820514269320829720,,,,,,,,,,,,,
25893462,Habitación acogedora y bien ubicada en el poblado.,56000,"Habitación en MEDELLÍN, Colombia",-75.57395,6.21312,102,4.91,,,,02/18,False,1
1003487530506284697,"Vistas, naturaleza, comodidad",61571,"Habitación en Sabaneta, Colombia",-75.62031790669889,6.1441580563962575,2,,,,,05/23,False,1
17666041,Ubicación estratégica.   Bolivariana /Laureles,52857,"Habitación en MEDELLÍN, Colombia",-75.58949,6.24906,9,4.44,,,,02/17,True,2
939949528313349653,Cómoda habitación en familia!,55000,"Habitación en MEDELLÍN, Colombia",-75.5812274,6.274767799999999,4,4.25,,,,08/23,False,1
892296087024390889,confort y calma,55000,"Habitación en MEDELLÍN, Colombia",-75.57661379637368,6.28144603463564,4,5.0,,,,06/23,False,1
1045074982171266085,Apartamento turístico,48000,"Habitación en MEDELLÍN, Colombia",-75.59609352136864,6.225742156305958,0,,,,,01/24,False,2
638510336217466226,Agradable casa con jacuzzi,55000,"Habitación en MEDELLÍN, Colombia",-75.5960972,6.276515,14,5.0,,,,02/22,True,3
1024749260653563038,Apartamento con piscina,55000,"Habitación en MEDELLÍN, Colombia",-75.60095,6.21773,2,,,,,12/23,False,1
12051954,Confortable Habitación,51459,"Habitación en MEDELLÍN, Colombia",-75.60846,6.24911,171,4.98,,,,02/16,False,1
760272507364750411,Mauro Aparta estudio,54126,"Loft entero en MEDELLÍN, Colombia",-75.5612282058404,6.275903180308494,34,4.91,11/2022,True,34,02/23,False,1
551686716941371134,Cómoda habitación privada en vivienda central.,55000,"Habitación en MEDELLÍN, Colombia",-75.55171,6.22994,11,4.73,,,,02/22,False,1
1014504096794669218,Habitación con la mejor vista.,60000,"Habitación en Itagüí, Colombia",-75.62763717875433,6.161842342753716,7,5.0,,,,11/23,False,1
929137844316911209,La vista más hermosa de MEDELLÍNN4,57714,"Habitación en MEDELLÍN, Colombia",-75.56482154167821,6.249060288036079,17,4.88,,,,02/23,False,1
862527285892782296,Acogedora Habitación Sabaneta,55000,"Habitación en Sabaneta, Colombia",-75.6168149,6.1532084,23,4.39,,,,04/23,False,1
958815218183935588,Espacio cozy!,55000,"Habitación en MEDELLÍN, Colombia",-75.60297369999999,6.234502,1,,,,,09/23,False,1
584121743850363536,"Cómoda en un lugar limpio y tranquilo, Laureles",57486,"Habitación en MEDELLÍN, Colombia",-75.58749,6.24506,50,4.84,,,,02/22,False,1
1005915801003843749,,,,,,,,,,,,,
912925360257747805,Habitación con baño privado Casa Malibú 4,55418,"Habitación en MEDELLÍN, Colombia",-75.58735,6.23322,14,4.86,,,,02/23,False,1
1023186512054544958,apartamento Céntrico comdo,47919,"Vivienda rentada entero en MEDELLÍN, Colombia",-75.54354423547534,6.234516215422685,3,5.0,05/2023,True,10,10/23,False,2
32446313,habitación en Apartamento Cómodo bien ubicado,56000,"Habitación en MEDELLÍN, Colombia",-75.57920144146111,6.279957063884101,0,,,,,12/23,False,1
27493359,"Habitación en un apartamento Increíble en Laureles, MEDELLÍN",51286,"Habitación en Laureles, Colombia",-75.59936,6.24921,34,4.97,,,,02/18,True,1
1056016783620189311,Habitación Amplia en Envigado,56000,"Habitación en Envigado, Colombia",-75.59026583964138,6.158637225173277,0,,,,,01/24,False,1
1037078303040796198,Habitación San Juan tayrona,56000,"Habitación en MEDELLÍN, Colombia",-75.5846305,6.2467631,1,,,,,02/20,False,1
761046362921008670,Fabuloso aparta estudio,54714,"Loft entero en MEDELLÍN, Colombia",-75.5612216,6.2756985,36,4.81,11/2022,True,36,02/23,False,1
820449836430443502,Cómodo y Tranquilo  Aparta estudio.,55000,"Apartamento con servicios incluidos entero en MEDELLÍN, Colombia",-75.600974,6.272563,5,5.0,10/2022,True,10,02/23,False,1
986494760147092853,hospedaje en robledo,52000,"Habitación en MEDELLÍN, Colombia",-75.58061619151698,6.286849888779392,1,,,,,10/23,False,1
908079947287918696,Gemas tranquilas cerca de Metro: sala de confort ideal,51103,"Habitación en calazans, Colombia",-75.60322907604655,6.260731058700057,1,,,,,02/19,False,1
766367641794415560,Habitación privada Cabañas Bello,55000,"Habitación en Bello, Colombia",-75.55688,6.3175,7,5.0,,,,02/17,False,1
571798165338921787,"Habitación privada en Sabaneta, muy cerca a todo.",51459,"Habitación privada en apartamento con servicios incluidos en Sabaneta, Colombia",-75.62253,6.15244,21,4.71,08/2015,True,48,02/16,True,1
23850961,Agradable | Acogedor | Barato | ¡Cerca de Metro!,39584,"Habitación privada en vivienda rentada en MEDELLÍN, Colombia",-75.61394,6.25918,80,4.53,03/2018,,80,02/18,True,1
1037058739181859401,,,,,,,,,,,,,
711051884870285357,Dormitorio amplio  2 personas cerca estadio (D2),51400,"Habitación en MEDELLÍN, Colombia",-75.60129,6.25653,5,4.8,,,,02/22,False,1
934245626632711454,Habitación privada en Belén.,55000,"Habitación en MEDELLÍN, Colombia",-75.59351880000001,6.235237,9,4.89,,,,,False,1
991162017658128277,Cómoda y amplia habitación en Belén rosales,54286,"Habitación en MEDELLÍN, Colombia",-75.59353094655762,6.235393046361719,1,,,,,10/23,False,1
593554981370867555,Aparta estudio medellin comuna 1,45000,"Apartamento con servicios incluidos entero en MEDELLÍN, Colombia",-75.546883,6.297449,3,5.0,03/2022,True,8,02/22,False,2
31809065,Ubicación y seguridad de la habitación en Laureles R1,60714,"Habitación en MEDELLÍN, Colombia",-75.5933,6.25147,46,4.76,,,,02/19,False,1
1049827217700731440,Habitación clásica confort/experiencia cultural,288963,"Vivienda rentada entero en MEDELLÍN, Colombia",-75.5639019288309,6.207676812606987,0,,12/2023,True,,01/24,False,1
750930299007733372,Habitación privada en Laureles-Estadio h4,50900,"Habitación en MEDELLÍN, Colombia",-75.59776,6.24992,9,4.78,,,,02/22,False,1
1016600089821497863,Habitación amoblada Laureles 3,53429,"Habitación en MEDELLÍN, Colombia",-75.58638719999999,6.25307,2,,,,,06/23,False,1
760919963884137438,Maravilloso aparta estudio,62143,"Loft entero en MEDELLÍN, Colombia",-75.55888879999999,6.2756297,20,5.0,11/2022,True,20,02/23,False,1
781689628673916120,Habitación privada en Laureles-estadio h5,50464,"Habitación en MEDELLÍN, Colombia",-75.59652000859832,6.2507163698946675,26,4.54,,,,02/22,False,1
801608005929336366,Apartamento privado y cerca a todo!,55000,"Vivienda rentada entero en MEDELLÍN, Colombia",-75.61313,6.23355,18,4.89,01/2023,True,33,02/23,False,2
1035793155622873494,"Apartamento en MEDELLÍN, estadio",70000,"Habitación en MEDELLÍN, Colombia",-75.59075,6.26064,1,,,,,02/23,False,1
759419666166300362,"MEDELLÍN. 
Apartamento con una hermosa vista.",63334,"Vivienda rentada entero en MEDELLÍN, Colombia",-75.57784,6.30754,3,5.0,11/2022,True,17,02/23,False,1
812574575714448469,Casa Belén Habitación 4 - Belén Parque/ Laureles,45000,"Habitación en MEDELLÍN, Colombia",-75.5948880398117,6.234068203891465,7,5.0,,,,02/23,False,1
820476314610452292,,,,,,,,,,,,,
994855711722750415,"Apartamento en MEDELLÍN, gran vista",61143,"Vivienda rentada entero en MEDELLÍN, Colombia",-75.6097372,6.212218399999999,5,4.6,08/2021,True,138,02/22,False,1
47428956,Sol y Luna,60000,"Vivienda rentada entero en MEDELLÍN, Colombia",-75.56456,6.27945,47,4.83,01/2021,True,47,02/21,False,1
581047673497668716,LINDA HABITACION baño PRIVADO-LAURELES ESTADIO,63250,"Habitación en MEDELLÍN, Colombia",-75.58868,6.25092,61,4.92,,,,02/18,False,1
887744992621820726,Exclusiva casa en MEDELLÍN habitación N�2,70000,"Habitación en MEDELLÍN, Colombia",-75.60907569999999,6.250057,2,,,,,06/23,False,1
40773095,Impecable y Cómoda habitación en Envigado,53500,"Habitación en Envigado, Colombia",-75.59365,6.17261,25,4.88,,,,02/20,False,1
1026768774412872368,Acogedor central y equipado.,110000,"Vivienda rentada entero en MEDELLÍN, Colombia",-75.5586524151991,6.261715596690187,2,,07/2023,True,118,09/23,True,1
1030646901244619521,arriendo habitación tranquila,53263,"Habitación en MEDELLÍN, Colombia",-75.60050711090891,6.271414645379938,0,,,,,12/23,False,1
863786234005353419,Excelente Ubicación! Equilibrio Shalom Living,58286,"Habitación en MEDELLÍN, Colombia",-75.61755,6.25661,2,,,,,04/23,False,1
854249787971167425,MiniLoft Completo/Orqu�dea/Belén/Central,49999,"Alojamiento entero en MEDELLÍN, Colombia",-75.60135,6.23248,5,5.0,03/2023,True,34,04/23,True,1
911434556871497392,Habitacion #1 Espaciosa,55000,"Habitación en Bello, Colombia",-75.56017,6.31318,9,5.0,,,,06/23,True,1
1049826059279583941,Alojamiento único clásico/Ambiente de MEDELLÍN,385112,"Vivienda rentada entero en MEDELLÍN, Colombia",-75.5652114930852,6.208976553590208,0,,12/2023,True,,01/24,False,1
1016726307740264122,"Habitación cerca al metro / piscina, gym",55000,"Habitación en Sabaneta, Colombia",-75.6214677,6.1487742,6,5.0,,,,02/20,False,1
822422434274180924,Casa Mora Z en el centro de MEDELLÍN Negro.,66000,"Habitación en MEDELLÍN, Colombia",-75.56248053809573,6.242540060392854,21,4.86,,,,02/23,False,1
865575247125060672,Habitación privada con cama sencilla y escritorio,40000,"Habitación en MEDELLÍN, Colombia",-75.58405845654369,6.239365199896506,6,4.67,,,,02/23,False,1
1049825484866322110,Acogedora habitación estándar/comida Increíble,288963,"Vivienda rentada entero en MEDELLÍN, Colombia",-75.56332,6.20884,0,,12/2023,True,,01/24,False,1
949554862011739795,,,,,,,,,,,,,
35843512,"Laureles co-living + espacio de trabajo, excelente ubicación R3",60714,"Habitación en MEDELLÍN, Colombia",-75.59452,6.25153,37,4.86,,,,02/19,False,1
908502595327437565,Habitación #2 coliving,50000,"Habitación privada en vivienda rentada en MEDELLÍN, Colombia",-75.58393,6.24723,2,,04/2022,True,51,02/22,True,1
17589283,económica ubicación cerca al Metro y la UdeA,60000,"Habitación en MEDELLÍN, Colombia",-75.56492,6.26526,48,4.94,,,,02/16,False,1
908512368962835086,Habitación 5.,50000,"Habitación en MEDELLÍN, Colombia",-75.58439,6.24567,4,5.0,,,,02/22,False,1
981879937219346760,Cómoda Habitación Amoblada + Desayuno.,54214,"Habitación en MEDELLÍN, Colombia",-75.54719164967537,6.29508137926689,0,,,,,10/23,False,1
42755703,Cómoda habitación con luz natural en Laureles,50429,"Habitación en MEDELLÍN, Colombia",-75.59715,6.24835,13,4.69,,,,02/11,False,1
850230288920252930,Habitación en hermoso apto,56000,"Habitación en Bello, Colombia",-75.5686187,6.3283285,0,,,,,05/23,False,1
1011612353147844037,Hostal en MEDELLÍN con habitación privada # 3,55200,"Habitación en MEDELLÍN, Colombia",-75.60697675225374,6.231777674654842,1,,,,,10/23,False,1
761357776765250266,Cama doble cerca del centro,55000,"Habitación en MEDELLÍN, Colombia",-75.55662,6.25111,0,,,,,02/23,False,1
854980814778253912,habitación Cómoda A2,50629,"Habitación en MEDELLÍN, Colombia",-75.5738,6.21482,15,5.0,,,,04/23,False,1
21281194,Tierra Fresca: La Estrella  Bella Vista,56000,"Habitación en La Estrella, Colombia",-75.64699,6.15854,0,,,,,02/18,False,2
807168937393362713,Casa Mora Z en el centro de Medellin azul.,66000,"Habitación en MEDELLÍN, Colombia",-75.56249109592633,6.2424044194844335,20,4.6,,,,02/23,False,1
40251720,"Casa acogedora, en excelente ubicación 103",55000,"Habitación en MEDELLÍN, Colombia",-75.59725,6.2208,32,4.94,,,,02/20,False,1
700731482006305024,Cómoda habitación privada en agradable casa,56000,"Habitación en MEDELLÍN, Colombia",-75.593,6.23728,15,4.73,,,,02/21,False,1
924099065700766388,Hermosa habitación cerca a Laureles,55286,"Vivienda rentada entero en MEDELLÍN, Colombia",-75.60024010214642,6.233746055797786,6,5.0,11/2022,True,21,06/23,True,1
889409477274816371,Amplia habitación con cama doble y closet,55000,"Habitación en Envigado, Colombia",-75.58496,6.17141,4,4.5,,,,06/23,False,1
852743833085627384,MiniLoft Completo/Heliconia/Belén/Central,49900,"Alojamiento entero en MEDELLÍN, Colombia",-75.6003891,6.2321519,9,4.78,03/2023,True,34,04/23,True,1
36477459,"Casa acogedora, en excelente ubicación 101",55000,"Habitación en MEDELLÍN, Colombia",-75.59719,6.21919,22,4.82,,,,02/20,False,1
53591803,Palermo,60000,"Loft entero en MEDELLÍN, Colombia",-75.56347,6.28327,27,4.59,08/2021,True,63,02/22,False,1
1038424002980127092,P3 - H3 Confortable habitación en Envigado,57143,"Habitación en Envigado, Colombia",-75.59357307924783,6.156727311173177,0,,,,,02/21,False,1
900555366224900878,Studio Apto +wifi 200 MB Experiencia Real MEDELLÍN,59992,"Vivienda rentada entero en MEDELLÍN, Colombia",-75.53814,6.23225,5,4.8,01/2019,True,981,02/19,False,1
826679413539101423,Comodidad a un paso del centro,51000,"Habitación en MEDELLÍN, Colombia",-75.56153,6.24778,9,5.0,,,,02/21,False,1
665475645791099443,hermoso Apartaestudio tipo NFT,53000,"Condo entero en Itagüí, Colombia",-75.63412016624711,6.17215851822161,32,4.81,07/2022,True,88,02/22,False,1
41997898,"Lavandería Gratis, Muy Limpio, Ubicación Perfecta",98000,"Habitación en Envigado, Colombia",-75.58828,6.17634,16,4.94,,,,02/20,False,1
889394674925156007,Habitación con cama doble y escritorio,55429,"Habitación en Envigado, Colombia",-75.5852,6.17122,4,5.0,,,,06/23,False,1
46428020,Silenciosa y confortable habitación individual,52000,"Habitación en Envigado, Colombia",-75.59082,6.16491,23,4.87,,,,02/20,False,1
965994207810080679,Hermoso apartaestudio para una persona,69300,"Vivienda rentada entero en MEDELLÍN, Colombia",-75.60969000145516,6.2514311960390145,3,5.0,08/2022,True,5,02/23,True,1
910244347324351186,Encantador aparta estudio.,59000,"Vivienda rentada entero en Itagüí, Colombia",-75.61596,6.17122,4,4.75,11/2017,True,140,02/22,False,1
1038459680193165189,P3 - H2 Confortable Habitación en Envigado,77486,"Habitación en Envigado, Colombia",-75.5956697579658,6.156814910465149,0,,,,,02/21,False,1
39627035,"Casa acogedora, en excelente ubicación 102",55000,"Habitación en MEDELLÍN, Colombia",-75.59775,6.21955,8,5.0,,,,02/20,False,1
743542697606027574,Transformación Room 2,55418,"Habitación en MEDELLÍN, Colombia",-75.55871,6.24886,1,,,,,02/22,False,1
777480298657359905,Apartamento Cómodo en MEDELLÍN,51459,"Vivienda rentada entero en MEDELLÍN, Colombia",-75.5790683,6.3060515,19,4.37,06/2022,True,27,02/23,False,1
8757456,Excelente habitación en Medellin,51459,"Habitación en MEDELLÍN, Colombia",-75.59427,6.23631,153,4.88,,,,02/16,False,1
29516919,Laureles Room en Guest House,55000,"Habitación en MEDELLÍN, Colombia",-75.5977,6.24897,14,4.79,,,,02/11,False,1
741490845653998338,Habitación con baño privado en Boston,65714,"Habitación en MEDELLÍN, Colombia",-75.55884,6.24705,2,,,,,02/23,False,1
44447960,apartuestudio  en casa finca en Sabaneta,49286,"Vivienda rentada entero en Envigado, Colombia",-75.60161,6.15119,37,4.86,05/2018,True,74,02/20,True,1
781749727283682544,Habitación privada en Laureles-Estadio h6,50899,"Habitación en MEDELLÍN, Colombia",-75.59729,6.2498,6,4.83,,,,02/22,False,1
728321075618482937,,,,,,,,,,,,,
852192080911749885,Es un lugar acogedor y familiar,53355,"Habitación en MEDELLÍN, Colombia",-75.58785,6.20894,0,,,,,04/23,True,2
804906912445605748,Casa de Paisa 4,53000,"Vivienda rentada entero en MEDELLÍN, Colombia",-75.60519,6.25993,10,4.8,07/2018,True,155,02/18,False,1
758178627611294855,"Habitación privada, Sabaneta, Envigado más cercano, Metro",51459,"Habitación privada en apartamento con servicios incluidos en Sabaneta, Colombia",-75.62134,6.15125,1,,08/2015,True,48,02/16,True,1
911042798904041155,Habitación  fresca y silenciosa.,55200,"Habitación en MEDELLÍN, Colombia",-75.57573,6.20681,0,,,,,07/23,False,1
539179062586620725,Cómoda habitación privada en apartamento,52292,"Habitación en Bello, Colombia",-75.55308,6.31537,9,4.89,,,,02/22,False,1
932671992043185679,Se alquila habitación para mujer,52800,"Habitación en MEDELLÍN, Colombia",-75.57093339181972,6.215108022625493,0,,,,,02/23,False,1
40871541,Habitación Cómoda en unidad campestre,55000,"Habitación en Envigado, Colombia",-75.57695,6.16433,6,4.83,,,,02/18,False,2
908515385377800898,Habitación 6.,55000,"Habitación en MEDELLÍN, Colombia",-75.58291,6.24534,5,4.8,,,,02/22,False,1
846506531895746795,ApartaHotel de descanso | Habitación 2,55000,"Habitación en MEDELLÍN, Colombia",-75.6113306,6.2544524,0,,,,,04/23,False,1
53120443,Hermoso y acogedor aparta estudio en MEDELLÍN!,62000,"Vivienda rentada entero en MEDELLÍN, Colombia",-75.61643,6.2538,21,4.9,08/2016,True,35,02/22,False,1
53269433,Hermosa habitación. Belen  es Medellin.Descansemos,55789,"Habitación en MEDELLÍN, Colombia",-75.60449,6.21375,4,5.0,,,,02/20,False,1
663802644507468750,Casa LuNa� estratégica Ubicación,52800,"Habitación en MEDELLÍN, Colombia",-75.5638546,6.259190299999999,0,,,,,02/22,False,1
544315237367290589,Casa LuNa�  estratégica Ubicación,51651,"Habitación en MEDELLÍN, Colombia",-75.56404113769531,6.259137153625488,0,,,,,02/22,False,1
796228288015211149,Habitación en apartamento tranquilo y central,50000,"Habitación en MEDELLÍN, Colombia",-75.57887,6.28053,3,5.0,,,,02/23,False,1
892038269156210314,,,,,,,,,,,,,
20268932,Habitación privada en apartamento,59376,"Habitación en MEDELLÍN, Colombia",-75.58566,6.25963,54,5.0,,,,02/18,False,1
1032063967397342515,Habitación Auxiliar,70000,"Habitación en MEDELLÍN, Colombia",-75.5985527,6.2581395,0,,,,,07/23,False,1
49388100,,,,,,,,,,,,,
17864812,Habitación Norte o Aria,59376,"Habitación en MEDELLÍN, Colombia",-75.56264,6.25073,56,4.86,,,,02/17,False,1
626098162300021813,Habitación privada bañocompartido Hostal Laureles5,58737,"Habitación privada en alojamiento en MEDELLÍN, Colombia",-75.59675,6.23854,45,4.89,07/2017,True,589,02/19,False,1
1010929274257625414,Habitación para 2 / laureles-estadio (#1),53866,"Habitación en MEDELLÍN, Colombia",-75.58922649603404,6.250239602594777,12,4.58,,,,02/23,False,1
806468242672834878,,,,,,,,,,,,,
893731397152782835,"Habitación independiente, cerca al Estadio",55000,"Habitación en MEDELLÍN, Colombia",-75.5935054,6.263245,67,4.99,,,,06/23,False,1
951326955261535297,Hospedaje habitacion doble apto en Medellin,50000,"Habitación en MEDELLÍN, Colombia",-75.60948789999999,6.2857093,15,4.93,,,,08/23,False,1
852860366914765052,MiniLoft completo/Margarita/Belén/Central,46900,"Alojamiento entero en MEDELLÍN, Colombia",-75.60122,6.23146,12,4.92,03/2023,True,34,04/23,True,1
30069336,Habitación con baño privado bien ubicada - Poblado,63000,"Habitación en MEDELLÍN, Colombia",-75.57204,6.21424,119,4.95,,,,02/18,False,1
27131328,Casa de Paisa 1,58000,"Condo entero en Medellin , Colombia",-75.60437,6.26348,65,4.77,07/2018,True,155,02/18,False,2
933608383548711156,ApartaStudio de 2 Ambientes,91043,"Vivienda rentada entero en MEDELLÍN, Colombia",-75.61022,6.26095,7,5.0,12/2016,True,50,02/17,False,1
1036218359457889670,Mista Rosa,42000,"Habitación en MEDELLÍN, Colombia",-75.59437789021301,6.233968646734228,1,,,,,12/23,False,1
1060273380334103049,Cómoda habitación,59376,"Habitación en MEDELLÍN, Colombia",-75.60065,6.23383,0,,,,,01/24,False,1
1010220904687817314,aparta-Estudio Privado,75210,"Vivienda rentada entero en MEDELLÍN, Colombia",-75.56735067952917,6.2910656083960035,4,5.0,06/2016,True,107,02/16,False,1
932155796378796117,2 habitaciones con baño privado en Belén los Alpes,105000,"Habitación en MEDELLÍN, Colombia",-75.6056981,6.229339599999999,8,4.88,,,,08/23,False,2
626110336259221023,Habitación Privada bañoCompartido Hostal Laureles6,56832,"Habitación en MEDELLÍN, Colombia",-75.59659,6.23731,54,4.87,,,,02/19,False,1
741133307448205084,Habitación Privada Y Moderna Medellin - Laureles 2,57000,"Habitación en MEDELLÍN, Colombia",-75.60604,6.24174,1,,,,,02/19,False,1
919168247528294244,"Confortable hab para 2, ubicación estrategica",66792,"Habitación en Envigado, Colombia",-75.58885405147012,6.177208462817427,5,4.2,,,,02/22,False,1
746459587336387089,4.3 Habitación en laureles,51429,"Habitación en MEDELLÍN, Colombia",-75.58837,6.24581,1,,,,,02/22,True,1
1016392429584652717,Habitación Amoblada Laureles 2,53821,"Habitación en MEDELLÍN, Colombia",-75.58638719999999,6.25307,5,5.0,,,,06/23,False,1
740114810261745088,Habitación Privada Y Cómoda Medellin -Laureles 5,57000,"Habitación en MEDELLÍN, Colombia",-75.60644,6.24227,12,4.83,,,,02/19,False,1
42092533,"""Habitación privada cerca de éxito de Laureles """,79168,"Habitación en MEDELLÍN, Colombia",-75.60129,6.23543,14,4.86,,,,02/17,False,1
852381856045788863,Habitación en Envigado-Antioquia,59900,"Habitación en Envigado, Colombia",-75.58322,6.17317,35,4.89,,,,04/23,False,1
24558560,H7|Casa jardín | Habitación Privada | Cerca a todo,71251,"Habitación en MEDELLÍN, Colombia",-75.582664,6.241399,36,4.64,,,,02/18,False,1
974668804142906589,Excelente ubicación! Vida Shalom Living,97143,"Vivienda rentada entero en MEDELLÍN, Colombia",-75.61589,6.25694,2,,07/2018,True,12,04/23,True,1
844929962283266434,Amplia y luminosa habitación privada.,59000,"Habitación en Envigado, Colombia",-75.59017910727081,6.168741948590873,5,5.0,,,,02/20,False,1
53824554,Luminosa y accesible habitación en El Dorado,59000,"Habitación privada en apartamento con servicios incluidos en Envigado, Colombia",-75.59103,6.16346,15,4.93,05/2019,True,67,02/20,False,1
32637563,"Excelente vista, dormitorio totalmente amueblado, baño privado",59376,"Habitación en MEDELLÍN, Colombia",-75.59403,6.25096,69,4.68,,,,02/18,False,1
922664326584846158,PachaMama Rasta Home,58228,"Habitación en Envigado, Colombia",-75.56776202447033,6.163153377297915,6,5.0,,,,07/23,False,1
819323602306769072,Central y acogedor Loft.,60000,"Loft entero en Itagüí, Colombia",-75.61701189726593,6.170428658489469,17,4.65,11/2017,True,140,02/22,False,1
37859445,III. Lugar acogedor en el vibrante Corazón del Estadio.,59000,"Habitación en MEDELLÍN, Colombia",-75.58805,6.25277,37,4.7,,,,02/20,False,1
941575837734178635,�Glamping en la ciudad en El Poblado! ¡Jacuzzi!,75210,"Habitación privada en alojamiento en Envigado, Colombia",-75.5659168346392,6.170451456969573,2,,12/2014,True,162,02/17,False,1
40864111,"Casa de campo
Habitación disponible Solo Mujeres.",59801,"Habitación en MEDELLÍN, Colombia",-75.50074,6.2508,4,5.0,,,,02/22,False,1
944484409526157387,Habitación única para ti,58286,"Habitación en MEDELLÍN, Colombia",-75.58046084810066,6.275530906917107,4,3.5,,,,08/23,False,1
22000572,Occidente o Sim�n's,59376,"Habitación en MEDELLÍN, Colombia",-75.56208,6.25179,20,4.8,,,,02/17,False,1
24698135,H6|Casa jardín | Habitación Privada | Cerca a todo,71251,"Habitación en MEDELLÍN, Colombia",-75.58274,6.24151,76,4.74,,,,02/18,False,1
1620337,La Guarida del Viajero - Rooom # 5,65000,"Habitación en Envigado, Colombia",-75.59015,6.16763,13,4.85,,,,02/14,False,1
824161465566472752,La vista más hermosa de MEDELLÍN #2,58286,"Habitación en MEDELLÍN, Colombia",-75.5640145,6.2499819,39,4.72,,,,02/23,False,1
847951348280553941,¡Habitación asequible con vistas al jardín en la finca Poblado!,75210,"Habitación en Envigado, Colombia",-75.5647611,6.174460499999999,8,4.5,,,,02/17,False,1
903005426309344099,Candelaria 's Room,59376,"Habitación en MEDELLÍN, Colombia",-75.56280697812721,6.250959100000005,7,4.71,,,,02/17,False,1
741148892681997535,Habitación Privada Y Hermosa Medellin - Laureles 3,54619,"Habitación en MEDELLÍN, Colombia",-75.60657,6.24167,3,5.0,,,,02/19,False,1
814623315788094934,Habitación Privada en Reserva Natural. El Salado,58000,"Habitación en Envigado, Colombia",-75.57189,6.13927,3,5.0,,,,02/23,False,1
862170957323703552,Habitación Cama Doble Sabaneta,45143,"Habitación en Sabaneta, Colombia",-75.6168149,6.1532084,21,4.48,,,,04/23,False,1
13342539,"Habitacion privada, cama doble, balcon.",71251,"Habitación en MEDELLÍN, Colombia",-75.58498,6.24292,22,4.91,,,,02/16,False,1
765964358497527234,habitación muy Cómoda,59376,"Habitación en MEDELLÍN, Colombia",-75.54643,6.23657,0,,,,,02/23,False,1
864790991750820818,Habitación con baño privado; Ambiente Familiar.,59000,"Habitación en MEDELLÍN, Colombia",-75.55811410597241,6.263379028410618,10,4.9,,,,06/23,False,1
13550749,Habitación privada muy cerca de Universidad UPB,59376,"Habitación en MEDELLÍN, Colombia",-75.58497,6.2443,9,4.89,,,,02/16,False,1
978919167390839785,Habitación privada Laureles,68000,"Habitación en MEDELLÍN, Colombia",-75.59825081625583,6.259379957141613,0,,,,,09/23,False,1
684948358465007812,Hermosa habitación privada en conjunto cerrado,58000,"Habitación en MEDELLÍN, Colombia",-75.6039945,6.2044295,5,4.6,,,,02/22,False,1
1018339530549094341,Amplia-Linda habitación privada con baño Poblado,110000,"Habitación en MEDELLÍN, Colombia",-75.55822862317949,6.193260736814835,2,,,,,09/23,False,1
663838447708359124,La habitación de Petrona,59376,"Habitación en MEDELLÍN, Colombia",-75.56268159999999,6.2509592,27,4.89,,,,02/17,False,1
879079506246221268,Apartaestudio en Medellin 102 Desayuno Incluido,70000,"Alojamiento entero en MEDELLÍN, Colombia",-75.6084479,6.251512099999999,9,5.0,08/2020,True,30,05/23,True,1
884163938748947720,Exclusiva casa en MEDELLÍN Habitación N�1,80000,"Habitación en MEDELLÍN, Colombia",-75.60907569999999,6.250057,4,5.0,,,,06/23,False,1
16514944,Habitación con baño privado cerca a metro Envigado,52013,"Habitación en Envigado, Colombia",-75.58995195552205,6.171806551628675,128,4.92,,,,02/17,False,1
1015911310508275550,Apartaestudio acogedor en itagui,63000,"Vivienda rentada entero en Itagüí, Colombia",-75.60385398566723,6.192538554242982,10,4.6,04/2023,True,28,07/23,True,1
878458077866591482,Excelente ubicación! sector exclusivo de la ciudad,63334,"Loft entero en MEDELLÍN, Colombia",-75.60426,6.24039,14,4.93,04/2023,True,14,05/23,False,1
1018081480700258788,Habitación Confort 2 Laureles,54214,"Habitación privada en apartamento con servicios incluidos en MEDELLÍN, Colombia",-75.59619657064812,6.245577314304142,4,5.0,02/2017,True,8,11/23,True,1
1026784241145324645,Habitación en medellin,250000,"Habitación en MEDELLÍN, Colombia",-75.56142169065981,6.310971043578101,0,,,,,07/23,False,1
962656818432924290,,,,,,,,,,,,,
28804871,"Estudio privado Cerca a la 70, aeropuerto, BMX",63334,"Vivienda rentada entero en MEDELLÍN, Colombia",-75.59097,6.23388,41,4.63,04/2018,True,41,02/19,False,1
931694982376868163,Excelente vista apartaestudio Belén Wi-Fi Netflix,59621,"Vivienda rentada entero en MEDELLÍN, Colombia",-75.594619,6.224308,9,4.56,06/2018,True,67,02/23,True,1
752044458540425479,Desarrollador - Apartaestudio,60000,"Condo entero en MEDELLÍN, Colombia",-75.5993,6.22742,9,4.78,04/2016,True,50,02/22,True,1
20186509,Cómoda Habitación en El Poblado - MEDELLÍN,61006,"Habitación en MEDELLÍN, Colombia",-75.57758,6.19238,24,4.67,,,,02/17,False,1
1009630883009709248,Habitación Cómoda y económica central,40143,"Habitación en MEDELLÍN, Colombia",-75.55962112698364,6.248175471919384,9,4.78,,,,11/23,False,1
1392708,"Casa perfecta, incluso mejor ubicación*",63334,"Habitación en MEDELLÍN, Colombia",-75.58809,6.25306,181,4.83,,,,02/14,False,1
1037007693545856866,Habitación 4: cerca al Poblado (baño privado),59376,"Habitación en MEDELLÍN, Colombia",-75.59122,6.1954,2,,,,,12/23,False,1
908796921359924660,Habitación privada moderna central,63334,"Habitación en MEDELLÍN, Colombia",-75.5959957,6.220236,5,4.2,,,,02/22,False,1
48412301,"Habitación sencilla, con baño compartido",60000,"Habitación en Envigado, Colombia",-75.57498,6.15781,25,4.92,,,,02/21,False,1
41952963,"Laureles Confortable Alojamiento, súper Ubicación!",61858,"Vivienda rentada entero en MEDELLÍN, Colombia",-75.59047,6.23759,37,4.46,12/2019,True,143,02/20,True,1
865611424174853394,Apartaestudio moderno en itagui,63000,"Vivienda rentada entero en Itagüí, Colombia",-75.60363940894604,6.192483211432359,14,4.71,08/2019,True,59,02/23,True,1
804582327154288955,Minicasa asequible en Caldas,63000,"Vivienda rentada entero en Caldas, Colombia",-75.63131756692539,6.091153294842273,16,4.81,11/2019,True,34,02/22,False,1
37782559,Acogedor apartamento central: mejor ubicación. Habitación A.,59020,"Habitación en MEDELLÍN, Colombia",-75.60231,6.25888,10,5.0,,,,02/19,False,1
707173003392166394,Habitación Cómoda en Poblado,59225,"Habitación en MEDELLÍN, Colombia",-75.58067,6.18921,7,5.0,,,,11/23,False,1
978223890431795656,Habitación Envigado P1,55900,"Habitación en Envigado, Colombia",-75.58388379508767,6.173399755772222,2,,,,,04/23,False,1
866706425606462844,Apartaestudio en MEDELLÍN 101 Desayuno Incluido,70000,"Vivienda rentada entero en MEDELLÍN, Colombia",-75.60826014536896,6.251485437407691,8,4.88,08/2020,True,30,05/23,True,1
852169791149482536,Hermoso apartamento para tu estancia MEDELLÍN!,61857,"Vivienda rentada entero en MEDELLÍN, Colombia",-75.60938,6.25601,7,4.86,06/2018,True,7,05/23,False,3
868599497017505936,Aparta estudio M�cura envigado,65000,"Habitación privada en vivienda rentada en Envigado, Colombia",-75.59308602263702,6.16108919479905,6,5.0,03/2021,True,6,01/24,True,1
1013184654913313981,Amplia y hermosa  habitación con baño,60000,"Habitación en MEDELLÍN, Colombia",-75.5935508,6.2630849,4,5.0,,,,02/20,False,1
30350778,Cabaña Sabaneta,60286,"Cabaña entero en Sabaneta, Colombia",-75.6186379,6.1318214,5,4.6,10/2018,True,27,02/19,False,1
46062178,"Aparta-estudio en Laureles, internet 500 MB",66000,"Vivienda rentada entero en MEDELLÍN, Colombia",-75.6028,6.2485,17,4.76,07/2017,True,57,02/21,False,1
984829796926984883,Zafiro,60000,"Vivienda rentada entero en Itagüí, Colombia",-75.59214120423724,6.190437081526388,5,4.8,12/2020,True,60,02/23,True,1
903508448538117676,"Lujo, Comfort, practicidad, ubicación. B",53000,"Habitación en Sabaneta, Colombia",-75.62575,6.151,9,4.78,,,,05/23,False,1
36479298,"Hab 1, un lugar mágico una cama, baño compartido",62186,"Habitación en MEDELLÍN, Colombia",-75.56437,6.26544,83,4.89,,,,02/15,False,1
783294275483106772,Espacio acogedor para descansar y trabajar,51459,"Habitación en MEDELLÍN, Colombia",-75.594288893044,6.234055234107174,23,4.83,,,,02/19,False,1
14183791,"Moderno & Tinny Estudio 1er piso ""Laureles""!",75000,"Loft entero en MEDELLÍN, Colombia",-75.59869,6.24709,50,4.64,07/2016,True,107,02/16,False,1
53046671,Habitación amplia Area Laureles + baño privado GH2,60714,"Habitación en MEDELLÍN, Colombia",-75.5802,6.25323,31,4.68,,,,02/22,False,1
616157632807673494,Habitación con baño privado Hostal Laureles (1),56802,"Habitación en MEDELLÍN, Colombia",-75.59777,6.23829,23,4.83,,,,02/19,False,1
1039841500278075058,"Medellin, Habitacion central",60000,"Habitación en MEDELLÍN, Colombia",-75.59949689999999,6.254810099999999,1,,,,,12/23,False,1
1047051418054305117,Habitación en lindo apartamento,46000,"Habitación en MEDELLÍN, Colombia",-75.60511524696751,6.250012943563369,1,,,,,03/23,False,1
54028762,Habitacion con baño compartido,61143,"Habitación en MEDELLÍN, Colombia",-75.60047,6.22501,9,4.44,,,,02/22,False,1
47493657,Habitación amoblada con baño compartido,60000,"Habitación en Envigado, Colombia",-75.57574,6.15823,31,4.94,,,,02/21,False,1
38091176,"Habitación independiente, siéntete como en casa!",60000,"Habitación privada en apartamento con servicios incluidos en MEDELLÍN, Colombia",-75.60301009565592,6.209456931278682,16,4.75,10/2017,True,31,02/23,True,1
8733053,Apartamento tipo Loft frente a Eco parque,62000,"Loft entero en MEDELLÍN, Colombia",-75.58206,6.27411,27,4.37,10/2015,True,27,02/22,False,1
819058935534653948,"habitación sencilla, buen sector",69600,"Habitación en MEDELLÍN, Colombia",-75.575088,6.2074346,5,4.6,,,,02/18,False,1
887716645061025754,Cama extra doble y baño privado en apartamento,65000,"Habitación en Envigado, Colombia",-75.58407,6.17137,2,,,,,06/23,False,1
50479768,Eafit Elegance Retreat Tu suite principal te espera,64482,"Habitación en MEDELLÍN, Colombia",-75.58216,6.19066,3,5.0,,,,02/17,False,1
851625211364701727,Habitación Privada-Cerca a la ciudad-Zonas verdes,60000,"Habitación privada en casa de campo en Sabaneta, Colombia",-75.61791,6.13157,0,,03/2023,True,,04/23,False,2
820193181542709804,Habitación cerca al metro estación madera.,60000,"Habitación en Bello, Colombia",-75.56245509535076,6.31814974512699,4,4.0,,,,02/23,False,1
932692646266929166,Jaguar house - Duplex,60000,"Vivienda rentada entero en MEDELLÍN, Colombia",-75.59974860762138,6.22846943236449,3,4.33,07/2023,True,13,08/23,True,1
920139929622834544,"Ikalu 202, Loft entero",65000,"Vivienda rentada entero en MEDELLÍN, Colombia",-75.60948914527783,6.231188159778328,7,5.0,01/2017,True,60,02/23,True,1
53560035,Habitación estándar -  Coliving 78a,86000,"Habitación privada en alojamiento en MEDELLÍN, Colombia",-75.598618,6.240306,16,4.44,07/2021,True,441,02/21,True,1
53059958,Habitación - Cama tamaño queen/ balcón /baño privado GH5,68888,"Habitación en MEDELLÍN, Colombia",-75.58013,6.25428,31,4.81,,,,02/19,False,1
1035621743416263677,Habitacion/750MG/ Cerca a todo/moderna/vista10/10,60000,"Habitación en MEDELLÍN, Colombia",-75.60538880000001,6.219244199999999,1,,,,,12/23,False,1
52236813,Habitación Standar (303),78000,"Habitación privada en alojamiento en MEDELLÍN, Colombia",-75.598618,6.240306,19,4.95,07/2021,True,441,02/21,True,1
978243560047512932,Céntrica habitación,65000,"Habitación en MEDELLÍN, Colombia",-75.5690053,6.241310899999999,12,5.0,,,,10/23,False,1
767927928880913988,Paisa 's Haus 3,65000,"Vivienda rentada entero en MEDELLÍN, Colombia",-75.6042107,6.2615397,21,4.71,07/2018,True,155,02/18,True,2
51696040,Manila/Poblado pequeña y acogedora habitación,61019,"Habitación en MEDELLÍN, Colombia",-75.5729,6.21362,133,4.59,,,,02/15,False,1
891456157029135410,Linda habitación en MEDELLÍN,65000,"Habitación en MEDELLÍN, Colombia",-75.58529,6.20603,11,4.91,,,,05/23,False,1
717951188316509763,500 M | Laureles 1st Park | Habitaciónn .�5+baño en CoLiving,106323,"Habitación privada en alojamiento en MEDELLÍN, Colombia",-75.5933769,6.2467087,4,5.0,02/2015,True,72,02/20,False,1
897390302510645573,Apartamento 1 en el centro de MEDELLÍN,61714,"Apartamento con servicios incluidos entero en MEDELLÍN, Colombia",-75.55625974893493,6.241484384408896,15,4.6,09/2021,True,295,02/22,True,1
51653004,"Habitación tranquila, segura y encantadora en un apartamento compartido de 2bds",65000,"Habitación en Sabaneta, Colombia",-75.61014,6.15414,24,4.92,,,,02/22,False,1
927627392470086698,Loft moderno -ubicación central.,62114,"Vivienda rentada entero en Bello, Colombia",-75.56212168133801,6.3376773769117705,9,4.78,11/2021,True,18,02/23,False,1
716788874687924254,Acogedora pequeña habitación con baño propio,65000,"Habitación en MEDELLÍN, Colombia",-75.59324507672117,6.267490320755483,18,4.94,,,,02/23,False,1
800721564241377051,Habitación sencilla pueblito paisa y plaza mayor,47000,"Habitación privada en apartamento con servicios incluidos en MEDELLÍN, Colombia",-75.5785789,6.2387339,22,4.91,01/2020,True,26,02/22,False,1
1033322313599536572,,,,,,,,,,,,,
824127223595800786,Disfruta tu estancia en este gran lugar,63000,"Apartamento con servicios incluidos entero en MEDELLÍN, Colombia",-75.6026222,6.2293869,24,4.88,10/2018,True,24,04/23,False,1
1044449779605472069,Sukha Healing Home,81034,"Habitación en MEDELLÍN, Colombia",-75.5920502,6.2377056,1,,,,,01/24,False,4
908508926996241312,Habitación #4 Coliving,60000,"Habitación en MEDELLÍN, Colombia",-75.58393,6.24666,4,4.75,,,,02/22,False,1
663831494239696293,7. Living Poblado: Habitación privada.,63889,"Habitación en MEDELLÍN, Colombia",-75.571773,6.211669,27,4.74,,,,02/16,False,1
51284717,economica,80000,"Habitación privada en alojamiento en MEDELLÍN, Colombia",-75.598618,6.240306,45,4.71,07/2021,True,441,02/21,True,1
940032935562099254,Habitación doble privada en Apartamento,65000,"Habitación en MEDELLÍN, Colombia",-75.59952264603271,6.204572261936777,16,4.94,,,,08/23,False,1
39842588,"Habitación privada con balcón, inodoro compartido.",68000,"Habitación en MEDELLÍN, Colombia",-75.56341212489039,6.214257448045516,67,4.96,,,,02/20,False,1
54185410,Habitación baño privado san Joaquín- laureles,69000,"Habitación en MEDELLÍN, Colombia",-75.58459,6.24666,8,4.63,,,,02/20,False,1
678172037518232810,"Habitacion privada, con baño independiente.",66000,"Habitación privada en condo en Itagüí, Colombia",-75.60046,6.1942,24,4.58,03/2017,True,24,02/22,False,1
998464225127584866,"Habitación privada con baño, entrada independiente",72000,"Loft entero en MEDELLÍN, Colombia",-75.59062478836059,6.247290574360368,2,,06/2016,,3586,02/18,False,1
685682568149685417,Habitación Con balcón Privado Y Vistas (Poblado),95002,"Habitación en Envigado, Colombia",-75.56713,6.17605,13,4.92,,,,02/17,False,1
745823477789601349,Habitación Cómoda Con baño Privado en Laureles h9,75571,"Habitación en MEDELLÍN, Colombia",-75.59611,6.24999,39,4.82,,,,02/22,False,1
894797572849844698,Hermoso y Cómodo Aparta Estudio,65000,"Vivienda rentada entero en Bello, Colombia",-75.54091,6.34105,9,4.67,05/2021,True,46,03/23,False,1
720242262215510057,Habitación Privada MEDELLÍN,65000,"Habitación en MEDELLÍN, Colombia",-75.58551,6.24189,3,5.0,,,,02/22,False,1
847939099202849160,"Habitación c/ baño privado, vistas bosque: Poblado",87085,"Habitación en Envigado, Colombia",-75.5647611,6.174460499999999,12,4.92,,,,02/17,False,1
911761759224472534,Habitación central en MEDELLÍN,65000,"Habitación en MEDELLÍN, Colombia",-75.5867,6.20513,5,5.0,,,,05/23,False,1
32063167,6. CoNomad House con CoWorking en el lugar,60000,"Habitación en MEDELLÍN, Colombia",-75.59572,6.24697,46,4.72,,,,02/13,False,1
840116192027401598,Casa Meraki - Habitación 5,64000,"Habitación privada en alojamiento en MEDELLÍN, Colombia",-75.59783,6.25821,1,,03/2023,True,48,03/23,True,1
905179034394552500,Habitación con balcón en MEDELLÍN!,65000,"Habitación en MEDELLÍN, Colombia",-75.59665326029062,6.226560409921801,4,5.0,,,,07/23,False,1
986505651326012656,hospedaje en robledo,65000,"Habitación en MEDELLÍN, Colombia",-75.58094399384073,6.2865741001082505,4,4.75,,,,10/23,False,1
896115591407044270,"Habitación en El Poblado, MEDELLÍN",67854,"Habitación en MEDELLÍN, Colombia",-75.58182,6.19039,0,,,,,02/18,False,1
807526984659256248,Gratis Parqueadero. Excelente para movilidad,81614,"Vivienda rentada entero en MEDELLÍN, Colombia",-75.56659130000001,6.310224,32,4.88,10/2018,True,57,02/23,False,2
1007907483656718453,Excelente Ubicación Apartaestudio Tranvia Centro,68000,"Vivienda rentada entero en MEDELLÍN, Colombia",-75.55900938798314,6.2443869285051665,6,4.67,07/2017,True,308,02/19,False,1
1050114224790914799,,,,,,,,,,,,,
51350669,Habitación standar privada - coliving 78a,87000,"Habitación en MEDELLÍN, Colombia",-75.598618,6.240306,54,4.76,,,,02/21,False,1
950129773166649277,Habitación privada con baño. Entrada independiente,72000,"Loft entero en MEDELLÍN, Colombia",-75.59054050594568,6.247370471823176,17,4.18,06/2016,,3586,02/18,False,1
819130295183898221,Hermoso y Cómodo Aparta Estudio,65000,"Vivienda rentada entero en Bello, Colombia",-75.5413985,6.3416827,37,4.73,05/2021,True,46,03/23,False,1
1012325618759600123,Hostal en MEDELLÍN con habitación privada # 4,69000,"Habitación en MEDELLÍN, Colombia",-75.60701053055475,6.232807511555491,4,5.0,,,,10/23,False,1
685714011086103314,Hermoso apartamento gran vista,65000,"Vivienda rentada entero en MEDELLÍN, Colombia",-75.62022186711783,6.2511211106526785,12,4.92,04/2019,True,48,02/22,False,1
21718131,Habitación con baño privado en Belén Rosales. Hab2,55000,"Habitación en MEDELLÍN, Colombia",-75.59071,6.23109,6,5.0,,,,02/16,False,1
792045924258822483,Habitación doble con baño compartido,70000,"Habitación en MEDELLÍN, Colombia",-75.59272,6.26154,4,4.75,,,,02/22,False,1
948864757790832012,Uriel,65000,"Habitación en MEDELLÍN, Colombia",-75.59366221186575,6.227158696336686,8,4.5,,,,08/23,False,4
53188320,Cómoda habitación en complejo residencial,68000,"Habitación en Sabaneta, Colombia",-75.60976,6.15072,27,5.0,,,,02/19,False,1
858815849046392943,Linda suite Laureles MEDELLÍN 206,64071,"Vivienda rentada entero en MEDELLÍN, Colombia",-75.59684,6.24833,10,4.3,12/2022,True,110,02/23,True,1
53879552,Co-living / baño privado / Vista a patio verde GH4,60714,"Habitación en MEDELLÍN, Colombia",-75.58037,6.2549,24,4.79,,,,02/19,False,1
937155391702977672,,,,,,,,,,,,,
679201245547245954,Hermoso loft MEDELLÍN,61286,"Loft entero en MEDELLÍN, Colombia",-75.61073,6.24876,18,4.5,03/2016,True,44,02/16,False,1
18007203,Apartamento acogedor y privado en el campo (RNT102883),71251,"Vivienda rentada entero en Copacabana, Colombia",-75.50457,6.3661,36,4.81,08/2015,True,36,02/17,False,1
817476853531018869,Philosophy Room,76571,"Habitación privada en alojamiento en MEDELLÍN, Colombia",-75.5986739,6.2360679,3,5.0,02/2023,True,6,02/23,True,1
932139799492098926,Hermoso Aparta Studio Céntrico de 2 Ambientes,87085,"Condo entero en MEDELLÍN, Colombia",-75.6142969,6.2638897,12,4.67,12/2016,True,50,02/17,False,1
1036893096722859748,,,,,,,,,,,,,
842732133047082528,Loft bohemio,98960,"Habitación privada en alojamiento en MEDELLÍN, Colombia",-75.55107,6.18146,7,4.57,08/2018,True,1693,02/19,True,1
803601572841313544,402 Apartaestudio Universidad de MEDELLÍN,67857,"Loft entero en MEDELLÍN, Colombia",-75.609128,6.2322342,22,4.82,02/2022,True,113,02/22,True,1
892007670366210560,Linda habitación en un ambiente perfecto.,66000,"Habitación en MEDELLÍN, Colombia",-75.58607462793589,6.212609023103021,5,5.0,,,,09/23,False,1
1040826502665771138,Cómodo Aparta estudio en Itagüí,64000,"Vivienda rentada entero en Itagüí, Colombia",-75.617733,6.1695191,0,,12/2023,True,,01/24,False,1
994198832954445542,Habitación Confort en Laureles,57243,"Habitación privada en apartamento con servicios incluidos en MEDELLÍN, Colombia",-75.59574399143457,6.246879209301171,4,4.75,02/2017,True,8,11/23,True,1
1012953202801830252,Habitación apto estación niqua metro de MEDELLÍN,68000,"Habitación en Bello, Colombia",-75.5465588604782,6.328046606819245,1,,,,,11/23,False,1
943068598936808643,Apartamento U de M,70000,"Vivienda rentada entero en MEDELLÍN, Colombia",-75.60811424239006,6.230450517752538,1,,12/2020,True,,09/23,False,2
868720484433287439,,,,,,,,,,,,,
803666862052418219,Amplia y hermosa  habitación en Envigado,67293,"Habitación en Envigado, Colombia",-75.5735077,6.1572505,6,5.0,,,,04/23,False,1
1013188811984986094,"MEDELLÍN, Colombia",66286,"Habitación privada en apartamento con servicios incluidos en Envigado, Colombia",-75.5818585,6.1807972,1,,05/2019,True,,12/23,False,1
825991989871452628,Hermosa Habitación con baño privado Barrio Estadio,76238,"Habitación en MEDELLÍN, Colombia",-75.59647344180296,6.26190615550706,6,5.0,,,,02/22,False,1
997405837125983053,Cómodo Apto Universidad de Medellin 401,67857,"Loft entero en MEDELLÍN, Colombia",-75.609128,6.232234,10,4.9,02/2022,True,113,02/22,True,1
1057129848936783531,,,,,,,,,,,,,
37057232,!Tu casa en MEDELLÍN!,70000,"Habitación en MEDELLÍN, Colombia",-75.58231,6.22383,68,4.99,,,,02/19,False,1
46800770,"Habitación #3 en Envigado, Antioquia.",80000,"Habitación en Envigado, Colombia",-75.58022593994589,6.177756431093686,17,4.71,,,,02/21,False,1
899287197646205353,Alcoba cama doble,65000,"Habitación en Envigado, Colombia",-75.59396,6.15855,3,5.0,,,,06/23,True,3
42092521,HABITAción CómodA Y CERCA DE TODO,67293,"Habitación en MEDELLÍN, Colombia",-75.60137,6.23772,28,4.96,,,,02/17,False,1
862291312236378015,4.2 Habitación con baño en Laureles,57000,"Habitación en MEDELLÍN, Colombia",-75.58721,6.24552,0,,,,,02/22,True,1
54342365,Hermoso complejo mini-Loft/Oasis Otoño/Central,65000,"Loft entero en MEDELLÍN, Colombia",-75.58872,6.19933,35,4.77,01/2019,True,142,02/19,True,1
913555396814014700,Habitación confortable 2 camas / baño privado,70000,"Habitación en MEDELLÍN, Colombia",-75.59831066381348,6.256218525662726,9,5.0,,,,07/23,False,1
32070420,Casa Milord,67293,"Habitación en MEDELLÍN, Colombia",-75.58109,6.25624,81,4.9,,,,02/19,False,1
50845048,Cómoda habitación privada MEDELLÍN,65674,"Habitación en MEDELLÍN, Colombia",-75.58713,6.25148,22,4.95,,,,02/19,False,1
998816468702409242,Apartamento Buenos Aires,60000,"Vivienda rentada entero en MEDELLÍN, Colombia",-75.5422977,6.2353714,0,,03/2023,True,,11/23,False,2
1045803068773259115,"Al lado del aeropuerto, Estadio",69600,"Habitación en MEDELLÍN, Colombia",-75.59897169470787,6.209053627108877,0,,,,,02/20,False,1
905907537635123736,Habitación con baño compartido,64000,"Habitación en MEDELLÍN, Colombia",-75.59204,6.24832,1,,,,,10/23,False,1
1015485741825028702,Habitación cerca a la 70/ el estadio Casa Valtiz,80000,"Habitación en MEDELLÍN, Colombia",-75.59074,6.2488,3,5.0,,,,11/23,False,1
1031686128596600291,,,,,,,,,,,,,
45503728,"Laureles Confortable Alojamiento, súper Ubicación!",65000,"Vivienda rentada entero en MEDELLÍN, Colombia",-75.59768,6.23756,15,4.4,12/2019,True,143,02/20,True,1
31055756,Lugar para descansar y trabajar,98000,"Apartamento con servicios incluidos entero en MEDELLÍN, Colombia",-75.61419913383959,6.259689783349923,3,5.0,12/2018,True,3,12/23,True,1
596430549271442557,"Bienvenid@s a la casa ""Eterna primavera"" (con TV)",80000,"Habitación en MEDELLÍN, Colombia",-75.57259,6.21338,63,4.73,,,,02/22,False,1
1017647641779338959,Loft con encanto | Nómadas digitales,50262,"Vivienda rentada entero en MEDELLÍN, Colombia",-75.59303021058544,6.228687228231322,2,,12/2021,True,2149,02/22,False,1
54344628,Dreamy mini-Loft Completo/Oasis Verano/Central,67000,"Loft entero en MEDELLÍN, Colombia",-75.58933,6.1981,26,4.73,01/2019,True,142,02/19,True,1
965869349394855254,Tiny & Moderno estudio en Laureles,75000,"Vivienda rentada entero en MEDELLÍN, Colombia",-75.59866874603271,6.246920712195824,2,,07/2016,True,107,02/16,False,1
35682627,Vive como un local/live like a local,65000,"Alojamiento entero en MEDELLÍN, Colombia",-75.56026,6.23749,20,4.75,08/2016,True,20,02/19,False,1
887883994570509821,Habitación agradable en Envigado,57900,"Habitación en Envigado, Colombia",-75.5842,6.17353,8,5.0,,,,04/23,False,1
1013745562393205664,Donde Nanny,65000,"Habitación en MEDELLÍN, Colombia",-75.59235723154956,6.2842325402252115,0,,,,,01/24,False,1
755273095650452158,Acogedora habitación individual en Casa Amplia,87000,"Habitación en MEDELLÍN, Colombia",-75.575088,6.2074346,12,4.17,,,,02/18,False,1
913868346374834980,confort habitación baño compartido con anfitriona,60000,"Habitación en MEDELLÍN, Colombia",-75.59657522616726,6.250441428523671,7,5.0,,,,07/23,False,1
670244976755264250,Excelente habitación privada.,65000,"Habitación en Itagüí, Colombia",-75.62750436365604,6.160778225890598,0,,,,,11/23,False,1
50329071,Antillas 1501,65000,"Habitación en MEDELLÍN, Colombia",-75.56391,6.25042,22,4.91,,,,02/21,False,1
821911602393559200,"Casa Belén Habitación 1, Laureles",64721,"Habitación en MEDELLÍN, Colombia",-75.5953011,6.2338214,14,4.79,,,,02/23,False,1
918824095452972556,Habitación privada cerca a la comuna 13,67000,"Habitación en MEDELLÍN, Colombia",-75.61167995369135,6.250886658098862,0,,,,,07/23,True,1
833367412820552126,Habitación amoblada y privada 203,65000,"Habitación en MEDELLÍN, Colombia",-75.58529,6.20911,0,,,,,03/23,False,1
611119746729561889,"Habitación privada con balcón, baño compartido Poblado",65766,"Habitación en MEDELLÍN, Colombia",-75.5644065324508,6.212548766124995,73,4.95,,,,02/20,False,1
1046378476490662608,Apartaestudio Miraflores 201,64000,"Habitación privada en vivienda rentada en MEDELLÍN, Colombia",-75.5508731,6.237527399999999,1,,12/2023,True,3,01/24,True,1
952454210104510945,,,,,,,,,,,,,
796298817799217918,"4 por persona, 27 km de MEDELLÍN, Paz abs",80000,"Cabaña entero en Palmitas, Colombia",-75.67346535623074,6.348059045612324,3,4.67,06/2015,True,34,02/21,False,2
782716778916792716,Habitación amplia/parques del ri,67713,"Habitación en MEDELLÍN, Colombia",-75.58134251904906,6.244697196532623,2,,,,,02/18,False,1
45115448,"Lavandería Gratis, Muy Limpio, Ubicación Perfecta",245714,"Habitación en Envigado, Colombia",-75.58665,6.17668,7,5.0,,,,02/20,False,1
40337484,RELAJAción 4,65000,"Habitación en MEDELLÍN, Colombia",-75.59047,6.25265,12,4.75,,,,02/20,False,1
6867074,Maravillosa casa con vistas en MEDELLÍN,67293,"Alojamiento entero en MEDELLÍN, Colombia",-75.57874,6.29873,4,5.0,06/2014,True,9,02/15,False,3
29829339,"Acogedor refugio: vibraciones familiares, comodidad esencial",65036,"Habitación en MEDELLÍN, Colombia",-75.60376,6.26455,9,5.0,,,,02/20,False,1
908089660452249237,"4� piso, vista a toda la ciudad",67293,"Alojamiento entero en Envigado, Colombia",-75.578501,6.1713327,3,3.67,09/2022,True,17,03/23,False,1
978296311399991494,Habitación Envigado P 1,58486,"Habitación en Envigado, Colombia",-75.58357,6.1729,2,,,,,04/23,True,1
39873179,Apartaestudio en Sabaneta #1,66286,"Vivienda rentada entero en Envigado, Colombia",-75.60252,6.15306,37,4.81,05/2018,True,74,02/20,True,1
12442367,Habitaciones en zona turística de la comuna 13,67857,"Habitación en MEDELLÍN, Colombia",-75.62384,6.25591,0,,,,,02/16,False,1
917394614379245929,Estudio central en Envigado a 15 min Poblado,65000,"Vivienda rentada entero en Envigado, Colombia",-75.58418,6.16834,12,4.75,03/2022,True,219,02/22,False,1
898086083623824017,Acogedora habitación,64000,"Habitación en Envigado, Colombia",-75.58716027897808,6.165802672275858,2,,,,,08/23,False,1
50269158,Nuevo Apartamento 1 habitación + cuarto sala,68000,"Vivienda rentada entero en Bello, Colombia",-75.5548,6.34235,4,5.0,02/2021,True,11,02/21,True,1
54345159,Lovely mini-Loft Completo/Oasis Invierno/Central,65000,"Loft entero en MEDELLÍN, Colombia",-75.5907,6.19804,26,4.88,01/2019,True,142,02/19,True,1
894983351526823915,The Green House (Casa Verde),69697,"Habitación en Sabaneta, Colombia",-75.61894,6.14348,0,,,,,06/23,False,1
959674998056607614,Habitación con baño compartido y tv Android,65000,"Habitación en MEDELLÍN, Colombia",-75.58684,6.24953,3,5.0,,,,09/23,False,1
788527030610665037,Central Habitación Sabaneta,65000,"Habitación en Sabaneta, Colombia",-75.61868,6.15128,3,5.0,,,,02/23,False,1
993462166637185015,Habitación con baño privado - Laureles,68000,"Habitación en MEDELLÍN, Colombia",-75.59107322488443,6.248281221773418,1,,,,,10/23,False,1
21718675,Habitación con baño privado en Belén Rosales. Hab3,55000,"Habitación en MEDELLÍN, Colombia",-75.59125,6.23063,12,4.92,,,,02/16,False,1
889206804689593914,Habitación privada Sabaneta,65600,"Habitación en Sabaneta, Colombia",-75.600118,6.1519186,0,,,,,06/23,False,1
969190844927178782,Casa Esmeralda - Hab 3,67857,"Habitación en MEDELLÍN, Colombia",-75.60656555160492,6.242147929916382,0,,,,,09/23,False,1
27132126,H1 Casa jardín | Habitación Privada | Cerca a todo,67293,"Habitación en MEDELLÍN, Colombia",-75.58276,6.24096,21,4.76,,,,02/18,False,1
742877919747158056,Sala de transformación 1,67293,"Habitación en MEDELLÍN, Colombia",-75.55852,6.24804,1,,,,,02/22,False,1
53992593,"Habitación grande en una casa privada, baño compartido",67857,"Habitación en MEDELLÍN, Colombia",-75.60184,6.22452,2,,,,,02/22,False,1
1038472433085990936,P3 - H1 Confortable habitación en Envigado,108857,"Habitación en Envigado, Colombia",-75.59544162368655,6.157971752136224,2,,,,,02/21,False,1
908505909772266445,Habitación #3 Coliving,65000,"Habitación privada en vivienda rentada en MEDELLÍN, Colombia",-75.58318,6.24545,7,4.71,04/2022,True,51,02/22,True,1
744317579587109617,Sala de transformación 4,67293,"Habitación en MEDELLÍN, Colombia",-75.55685,6.24718,1,,,,,02/22,False,1
907179000700797408,Bello espacio Cerca a MEDELLÍN,79168,"Vivienda rentada entero en Bello, Colombia",-75.55345,6.34116,4,4.75,05/2016,True,23,02/22,True,1
695702933287064644,Habitación privada San Joaquin,69000,"Habitación en MEDELLÍN, Colombia",-75.58497458696365,6.247401134227381,18,4.78,,,,02/20,False,1
855195895498999678,Nuevo Apartaestudio cerca a todo,98960,"Vivienda rentada entero en MEDELLÍN, Colombia",-75.56191919999999,6.2748538,25,4.84,12/2022,True,65,02/23,False,1
621875426918460048,Apartamento para 4 personas en L�pez de mesa,58000,"Vivienda rentada entero en MEDELLÍN, Colombia",-75.5795,6.28056,6,4.83,02/2018,True,19,02/20,True,2
685748953551073346,Habitación Grande Cama King Con Vistas (Poblado),113091,"Habitación en Envigado, Colombia",-75.56489,6.17496,7,5.0,,,,02/17,False,1
27833330,Habitación con baño privado y desayuno donde Aby,67000,"Habitación en MEDELLÍN, Colombia",-75.56083,6.24833,32,4.94,,,,02/19,False,1
41553504,"Apartamento de sue�os, minimalista, confort y Dios",64000,"Habitación en Envigado, Colombia",-75.60023,6.15519,9,4.78,,,,02/20,False,1
1006543859309140307,Hermoso y privado apartamento cerca a todo!,57429,"Vivienda rentada entero en MEDELLÍN, Colombia",-75.61363594669506,6.232612712193526,2,,01/2023,True,33,02/23,False,2
916201664575953053,Joseph�s Home Habitación 1,65000,"Habitación en MEDELLÍN, Colombia",-75.597081,6.2475502,3,4.33,,,,07/23,False,1
53462790,Viajes MEDELLÍN Wifi Veloz,71251,"Vivienda rentada entero en MEDELLÍN, Colombia",-75.60906,6.24914,19,4.68,11/2021,True,56,02/22,True,2
873320004441275317,Habitación privada Laureles - Estadio,64000,"Habitación en MEDELLÍN, Colombia",-75.58633,6.26204,0,,,,,05/23,False,1
833323074111058912,PaisassHouse 5,65000,"Vivienda rentada entero en MEDELLÍN, Colombia",-75.6035132,6.260235,11,4.64,07/2018,True,155,02/18,False,2
917327057951993132,Joseph�s Home Habitación 4,65000,"Habitación en MEDELLÍN, Colombia",-75.597081,6.2475502,0,,,,,07/23,False,1
699980256773762201,Habitación en zona prime/ COMFY room in prime area,65120,"Habitación en MEDELLÍN, Colombia",-75.580447,6.256767,83,4.94,,,,02/22,False,1
853536030855118622,MiniLoft Completo/Camelia/Belén/Central,62900,"Alojamiento entero en MEDELLÍN, Colombia",-75.60115,6.23258,0,,03/2023,True,34,04/23,True,1
1000191279253770186,"Habitación Privada: Tranquilidad y Confort, # 205.",64000,"Habitación en MEDELLÍN, Colombia",-75.59341721830133,6.23467186946503,0,,,,,10/23,False,1
45463672,Habitación Cómoda con excelente ubicación,65000,"Habitación en MEDELLÍN, Colombia",-75.5872802734375,6.244161128997803,17,5.0,,,,02/21,False,1
51508587,"Cuarto principal grande, baño privado cerca Eafit.",178128,"Habitación en MEDELLÍN, Colombia",-75.58239,6.19012,2,,,,,02/17,False,1
845921822770259830,Cómodo Apartamento con buena luz,65000,"Vivienda rentada entero en MEDELLÍN, Colombia",-75.57982899999999,6.2818225,3,5.0,02/2018,True,19,02/20,True,2
3896389,Estudio en Prado Centro a dos cuadras del Metro,63334,"Vivienda rentada entero en MEDELLÍN, Colombia",-75.56158,6.26183,70,4.79,01/2013,True,350,02/15,False,1
968949078606691043,Casa de Campo Nepal Santa Elena,67429,"Cabaña entero en Santa Elena, Colombia",-75.56179694673425,6.336556796099625,0,,09/2022,True,19,02/23,False,2
705657609770770151,"Laureles Confortable Alojamiento, súper Ubicación!",54762,"Habitación en MEDELLÍN, Colombia",-75.59805,6.23898,13,4.92,,,,02/20,False,1
41735969,Agradable estudio en el Corazón universitario,75000,"Vivienda rentada entero en MEDELLÍN, Colombia",-75.56739,6.26326,31,4.42,04/2017,True,32,02/20,False,1
22860278,"Pavezgo, Corazón de la buena mesa de Envigado",85000,"Habitación en Envigado, Colombia",-75.5849,6.1773,27,4.74,,,,02/18,False,1
754437476359658197,4.4Habitación con baño privado en laureles,68000,"Habitación en MEDELLÍN, Colombia",-75.58829,6.24516,1,,,,,02/22,True,1
30687964,"SIMSALABIM ""DOS"" Lugar mágico",85000,"Habitación en MEDELLÍN, Colombia",-75.60048,6.24711,12,4.83,,,,02/19,False,1
48395139,Manila/Poblado Amplia habitación en hermosa casa,81714,"Habitación en MEDELLÍN, Colombia",-75.57199,6.21301,74,4.39,,,,02/15,False,1
968307113218998038,Acogedora habitación en Laureles con baño privado,72286,"Habitación en MEDELLÍN, Colombia",-75.6041223,6.2446688,43,4.98,,,,10/23,False,1
42387659,"Privado, sin vistas, wifi rápido y con cable en la habitación",99429,"Habitación privada en vivienda rentada en MEDELLÍN, Colombia",-75.5876,6.23581,161,4.73,04/2010,True,454,02/11,True,1
38435389,Chilling house,75000,"Vivienda rentada entero en MEDELLÍN, Colombia",-75.60546,6.23148,62,4.61,08/2019,True,184,02/20,False,1
51249970,HABITACION DOBLE ESTANDAR(205) -HOTEL COLIVING 78A,87429,"Habitación privada en alojamiento en MEDELLÍN, Colombia",-75.598618,6.240306,31,4.45,07/2021,True,441,02/21,True,1
1012494277776847329,Cómodo apartamento,79000,"Vivienda rentada entero en MEDELLÍN, Colombia",-75.5874415487051,6.200855150405968,5,5.0,05/2017,True,13,11/23,False,1
39537023,RELAJANTE 1,55000,"Habitación en MEDELLÍN, Colombia",-75.5915,6.25219,38,4.95,,,,02/20,False,1
729115045520268336,Confortable habitación en laureles - MEDELLÍN,75210,"Habitación en MEDELLÍN, Colombia",-75.59011705219746,6.245935013491201,31,4.87,,,,02/23,False,1
903693203190847682,Apartamento que permite mascota en MEDELLÍN ONE105,83126,"Vivienda rentada entero en MEDELLÍN, Colombia",-75.60359,6.23062,1,,09/2019,True,2647,02/20,False,1
974691185234522843,"Acogedor, Central  y Equipado",70000,"Vivienda rentada entero en MEDELLÍN, Colombia",-75.55805,6.2613,23,4.83,07/2023,True,118,09/23,True,1
1020955271788520130,Cómodo aparta estudio dowtown boston centro obrero,110835,"Condo entero en MEDELLÍN, Colombia",-75.55625331116025,6.251879909005686,2,,01/2017,True,1725,02/18,False,1
801545100801454959,"Ikalu 204, Loft entero (Disney, Star Plus)",80714,"Apartamento con servicios incluidos entero en MEDELLÍN, Colombia",-75.61028807378874,6.231927367033031,16,4.75,01/2017,True,60,02/23,True,1
862592046320703531,,,,,,,,,,,,,
803822037003000025,Apartamento MEDELLÍN - Hermosa Vista,90000,"Apartamento con servicios incluidos entero en Bello, Colombia",-75.5523702,6.315036999999999,6,4.83,02/2019,True,43,02/19,False,3
1043929934966127183,Apartamento cerca a Laureles.,130000,"Apartamento con servicios incluidos entero en MEDELLÍN, Colombia",-75.6048011407256,6.250283708438014,1,,10/2023,True,11,10/23,False,1
37055898,habitación con baño privado y televisor. lo mejor,83126,"Habitación en MEDELLÍN, Colombia",-75.56401,6.26469,107,4.99,,,,02/15,False,1
986395160287640830,Wifi grande y luminoso en el apartamento de Belén,93000,"Vivienda rentada entero en MEDELLÍN, Colombia",-75.6060383,6.2226288,3,4.67,01/2020,True,107,02/21,False,1
958944073497676655,,,,,,,,,,,,,
964384708538512496,Loft privado  para 2 personas cerca unicentro,87600,"Loft entero en MEDELLÍN, Colombia",-75.58655239641666,6.234550506105836,10,4.4,06/2016,,3586,02/18,False,1
1000708847835870802,,,,,,,,,,,,,
1029770466666457306,,,,,,,,,,,,,
48195522,Manila/Poblado Amplia habitación en hermosa casa,90000,"Habitación en MEDELLÍN, Colombia",-75.57328,6.21308,146,4.37,,,,02/15,False,1
899141318988430784,Apartamento con parqueadero en MEDELLÍN - ONE201,102918,"Vivienda rentada entero en MEDELLÍN, Colombia",-75.60183,6.22989,18,4.56,09/2019,True,2647,02/20,False,1
44576785,RELAJANTE 2,55000,"Habitación en MEDELLÍN, Colombia",-75.59176,6.25095,29,5.0,,,,02/20,False,1
51321885,HABITACION STANDAR BALCON (302) HOTEL COLIVING 78A,85857,"Habitación privada en alojamiento en MEDELLÍN, Colombia",-75.598618,6.240306,29,4.66,07/2021,True,441,02/21,True,1
1026146456479531340,Lo moderno Ferrini,90000,"Loft entero en MEDELLÍN, Colombia",-75.5979866,6.2663291,4,5.0,02/2022,True,65,02/22,True,1
691478089985893448,Confortable y Cómodo apto 304 entero barrio Belén,81429,"Vivienda rentada entero en MEDELLÍN, Colombia",-75.60044263967286,6.227751507345067,71,4.9,08/2016,True,811,02/17,False,1
960278436482509384,Apartaestudio escon�mico,64900,"Habitación privada en vivienda rentada en MEDELLÍN, Colombia",-75.6067964597738,6.223982295683422,4,5.0,08/2023,True,17,09/23,True,1
1026341394412688269,Rincón mágico en Santa Elena,75000,"Habitación privada en Chalé en V�a Santa Elena, Colombia",-75.49506828803129,6.260123410377146,16,4.94,10/2022,True,19,09/23,True,1
53352356,Apartamento estudio tranquilo y confortable,79168,"Loft entero en MEDELLÍN, Colombia",-75.60369,6.25239,26,4.58,06/2018,True,26,02/22,False,1
1058594034867953492,Apartamento entero Laureles 201,72773,"Vivienda rentada entero en MEDELLÍN, Colombia",-75.59693248465575,6.250313165061217,0,,12/2023,,,01/24,False,2
